osm_id,name,category,category_key,category_slug,address,city_slug,area_slug,business_slug,latitude,longitude,phone,website,email,opening_hours,google_maps_url,photo_url,image_url,google_summary,google_rating,google_review_count,google_place_id,tags,chain_flag,social_facebook,social_instagram,social_twitter,social_tiktok,social_linkedin,social_youtube,wikidata_id,fsa_rating,fsa_hygiene_score,fsa_establishment_id,status,ranking_tier,source,scrape_date,last_synced_at
node/827983667,Morrisons Daily,Food & Produce,food_produce,food-and-produce,"143-147 Four Acres, BS13 8RA, GB",,,morrisons-daily,51.4062987,-2.6266084,,https://my.morrisons.com/storefinder/61201/morrisons-daily-bristol-withywood-fouracres,,,,,,UK convenience store fascia brand owned by Wm Morrison Supermarkets plc,,,,"{""convenience""}",chain,,,,,,,Q99752411,,,,pending,low,OpenStreetMap,2026-04-19,2026-04-19 07:40:05
node/5084276701,Estate Stores,Food & Produce,food_produce,food-and-produce,,,,estate-stores,51.4156101,-2.6246489,,,,,,,,,,,,"{""convenience""}",independent,,,,,,,,,,,pending,standard,OpenStreetMap,2026-04-19,2026-04-19 07:40:05
node/10556681607,Yew Tree Farm Bristol,Food & Produce,food_produce,food-and-produce,"Bridgwater Road, Bristol, BS13 8AJ",bristol,,yew-tree-farm-bristol,51.4218834,-2.6342975,,,,,,,,,,,,"{""farm""}",independent,https://www.facebook.com/yewtreefarmandshop/,,,,,,,,,,pending,standard,OpenStreetMap,2026-04-19,2026-04-19 07:40:05
node/1207448023,The Bridge Cafe,Food & Produce,food_produce,food-and-produce,,,,the-bridge-cafe,51.4534149,-2.6252033,,http://www.theavongorge.com/the-bridge-cafe/welcome-1,rooms@theavongorge.com,,,,,,,,,"{""restaurant""}",independent,,,,,,,,,,,pending,standard,OpenStreetMap,2026-04-19,2026-04-19 07:40:05
node/13119524598,Tesco Express,Food & Produce,food_produce,food-and-produce,"1-2 Shirehampton Road, Bristol, BS9 2DP",bristol,sea-mills,tesco-express,51.4862885,-2.641832,,https://www.tesco.com/store-locator/bristol/trymwood-parade,,Mo-Su 07:00-23:00,,,,Brand for smaller convenience-style Tesco food stores in the UK and in some other countries where Tesco operates,,,,"{""supermarket""}",chain,,,,,,,Q98456772,,,,pending,low,OpenStreetMap,2026-04-19,2026-04-19 07:40:05
node/13119546304,Rajgate Tandori,Food & Produce,food_produce,food-and-produce,"5 Shirehampton Road, Bristol, BS9 2DP",bristol,sea-mills,rajgate-tandori,51.4863704,-2.6420547,,https://www.rajgatetandoori-bristol.co.uk,,"Su-Th 17:30-23:00; Fr,Sa 17:30-23:30",,,,,,,,"{""restaurant"",""indian""}",independent,,,,,,,,,,,pending,standard,OpenStreetMap,2026-04-19,2026-04-19 07:40:05
node/11466017653,Kwik Save,Food & Produce,food_produce,food-and-produce,"Queen's Road, Bristol",bristol,,kwik-save,51.4088478,-2.6213983,,,,,,,,British discount supermarket chain that was founded in Wales,,,,"{""supermarket""}",independent,,,,,,,Q769845,,,,pending,standard,OpenStreetMap,2026-04-19,2026-04-19 07:40:05
node/11478973267,Londis,Food & Produce,food_produce,food-and-produce,"92 Queen's Road, Bristol",bristol,,londis,51.4090941,-2.6211467,,,,Mo-Su 05:30-23:00,,,,Convenience store franchise operating in the United Kingdom,,,,"{""convenience""}",true,,,,,,,Q21008564,,,,pending,standard,OpenStreetMap,2026-04-19,2026-04-19 07:40:05
node/11147892761,Morrisons Daily,Food & Produce,food_produce,food-and-produce,"532-536 Bishport Avenue, BS13 9LJ",,,morrisons-daily,51.4056311,-2.6093784,+44 117 964 1620,https://my.morrisons.com/storefinder/61159/morrisons-daily-bristol-hartcliffe-bishport,,Mo-Sa 06:00-22:00; Su 07:00-22:00,,,,UK convenience store fascia brand owned by Wm Morrison Supermarkets plc,,,,"{""convenience""}",chain,,,,,,,Q99752411,,,,pending,low,OpenStreetMap,2026-04-19,2026-04-19 07:40:05
node/11524269682,Morrisons Daily,Food & Produce,food_produce,food-and-produce,"141 Church Road, Bristol, BS13 8JZ",bristol,,morrisons-daily,51.4130502,-2.6201936,,,,,,,,UK convenience store fascia brand owned by Wm Morrison Supermarkets plc,,,,"{""convenience""}",chain,,,,,,,Q99752411,,,,pending,low,OpenStreetMap,2026-04-19,2026-04-19 07:40:05
node/11501273339,Belland's Drive Co-op,Food & Produce,food_produce,food-and-produce,,,,bellands-drive-co-op,51.4071167,-2.5770311,,https://www.coop.co.uk/store-finder/BS14-0EW/30-32-belland-drive,,Mo-Su 06:00-22:00,,,,,,,,"{""convenience""}",chain,,,,,,,,,,,pending,low,OpenStreetMap,2026-04-19,2026-04-19 07:40:05
node/13108531079,Royalty,Food & Produce,food_produce,food-and-produce,,,,royalty,51.4072761,-2.5770598,,,,,,,,Variety of grape,,,,"{""restaurant""}",independent,,,,,,,Q2171172,,,,pending,standard,OpenStreetMap,2026-04-19,2026-04-19 07:40:05
node/13108540446,Palermo pizzeria,Food & Produce,food_produce,food-and-produce,,,,palermo-pizzeria,51.4073135,-2.57705,,,,,,,,,,,,"{""restaurant"",""pizza""}",independent,,,,,,,,,,,pending,standard,OpenStreetMap,2026-04-19,2026-04-19 07:40:05
node/11435897766,Five Acre Farm Shop,Food & Produce,food_produce,food-and-produce,,,,five-acre-farm-shop,51.442383,-2.6137724,,,,,,,,,,,,"{""deli""}",independent,,,,,,,,,,,pending,standard,OpenStreetMap,2026-04-19,2026-04-19 07:40:05
node/4749634967,Tobacco Factory Market,Food & Produce,food_produce,food-and-produce,,,,tobacco-factory-market,51.4426584,-2.6134949,,,,Su 10:00-14:30,,,,,,,,"{""marketplace""}",independent,,,,,,,,,,,pending,standard,OpenStreetMap,2026-04-19,2026-04-19 07:40:05
node/12923053147,Heron Foods,Food & Produce,food_produce,food-and-produce,"102-106 East Street, Bristol, BS3 4EY",bristol,bedminster,heron-foods,51.4416017,-2.5982583,,https://heronfoods.com/store/bedminster/,,Mo-Sa 08:00-18:00; Su 10:00-16:00,,,,English retail chain founded in 1979 and based in Melton,,,,"{""supermarket""}",true,,,,,,,Q5743472,,,,pending,standard,OpenStreetMap,2026-04-19,2026-04-19 07:40:05
node/13357250775,Southville Deli,Food & Produce,food_produce,food-and-produce,,,,southville-deli,51.4424466,-2.5959408,,,,,,,,,,,,"{""deli""}",independent,,,,,,,,,,,pending,standard,OpenStreetMap,2026-04-19,2026-04-19 07:40:05
node/13140992986,Spitfire,Food & Produce,food_produce,food-and-produce,"1 Hannover Quay, Bristol, BS1 5JE",bristol,harbourside,spitfire,51.448089,-2.6018545,,,,,,,,Russian ska band,,,,"{""restaurant"",""american""}",independent,,,,,,,Q1311070,,,,pending,standard,OpenStreetMap,2026-04-19,2026-04-19 07:40:05
node/13041619238,Ragu,Food & Produce,food_produce,food-and-produce,,,,ragu,51.4472857,-2.5981412,+44 117 9110218,https://www.ragurestaurant.com,,,,,,Male given name,,,,"{""restaurant"",""italian"",""mediterranean""}",independent,,,,,,,Q96653780,,,,pending,standard,OpenStreetMap,2026-04-19,2026-04-19 07:40:05
node/12512022293,Newquay road convenience store,Food & Produce,food_produce,food-and-produce,,,,newquay-road-convenience-store,51.4267588,-2.5791471,,,,,,,,,,,,"{""convenience""}",independent,,,,,,,,,,,pending,standard,OpenStreetMap,2026-04-19,2026-04-19 07:40:05
node/13357254812,Baker Bespoke,Food & Produce,food_produce,food-and-produce,,,,baker-bespoke,51.4411652,-2.5930991,,,,,,,,,,,,"{""kitchen""}",independent,,,,,,,,,,,pending,standard,OpenStreetMap,2026-04-19,2026-04-19 07:40:05
node/13145150507,The Park Deli,Food & Produce,food_produce,food-and-produce,,,,the-park-deli,51.4375272,-2.5846446,,,,,,,,,,,,"{""deli""}",independent,,,,,,,,,,,pending,standard,OpenStreetMap,2026-04-19,2026-04-19 07:40:05
node/2384478514,Redcliffe Premier,Food & Produce,food_produce,food-and-produce,"Redcliff Hill, Bristol, BS1 6TB",bristol,,redcliffe-premier,51.4468762,-2.5911857,,,,,,,,,,,,"{""convenience""}",independent,,,,,,,,,,,pending,standard,OpenStreetMap,2026-04-19,2026-04-19 07:40:05
node/12877052417,The Kiln,Food & Produce,food_produce,food-and-produce,,,,the-kiln,51.4480092,-2.587359,,,,,,,,"Former pub in Leeds, West Yorkshire, England, UK",,,,"{""restaurant""}",independent,,,,,,,Q136675920,,,,pending,standard,OpenStreetMap,2026-04-19,2026-04-19 07:40:05
node/11159406779,Londis,Food & Produce,food_produce,food-and-produce,"194-196 Wells Road, Bristol, BS4 2AX",bristol,knowle,londis,51.4389254,-2.5723368,,,,,,,,Convenience store franchise operating in the United Kingdom,,,,"{""convenience""}",true,,,,,,,Q21008564,,,,pending,standard,OpenStreetMap,2026-04-19,2026-04-19 07:40:05
node/6780649303,Chi foof,Food & Produce,food_produce,food-and-produce,,,,chi-foof,51.4482776,-2.5733843,,,,Mo-Fr 06:00-12:00,,,,,,,,"{""spices""}",independent,,,,,,,,,,,pending,standard,OpenStreetMap,2026-04-19,2026-04-19 07:40:05
node/7817679484,Blue Ginger,Food & Produce,food_produce,food-and-produce,"36-38 Gilda Parade, Bristol, BS14 9HY",bristol,whitchurch,blue-ginger,51.4130925,-2.5599556,,,,,,,,Hotel in India,,,,"{""restaurant"",""bengal""}",independent,,,,,,,Q111860875,,,,pending,standard,OpenStreetMap,2026-04-19,2026-04-19 07:40:05
node/7817700259,Paprika,Food & Produce,food_produce,food-and-produce,"16-18 Gilda Parade, Bristol, BS14 9HY",bristol,whitchurch,paprika,51.4136978,-2.5600046,,,,,,,,,,,,"{""restaurant"",""indian""}",independent,,,,,,,,,,,pending,standard,OpenStreetMap,2026-04-19,2026-04-19 07:40:05
node/7817700261,Spar,Food & Produce,food_produce,food-and-produce,"12 Gilda Parade, Bristol, BS14 9HY",bristol,whitchurch,spar,51.4138443,-2.560038,,https://www.spar.co.uk/store-locator/awl26862-spar-gilda-parade,,,,,,Dutch multinational retail chain and franchise brand,,,,"{""convenience""}",independent,,,,,,,Q610492,,,,pending,standard,OpenStreetMap,2026-04-19,2026-04-19 07:40:05
node/4904868721,Cloisters,Food & Produce,food_produce,food-and-produce,,,,cloisters,51.441514,-2.56065,,,,,,,,,,,,"{""restaurant""}",independent,,,,,,,,,,,pending,standard,OpenStreetMap,2026-04-19,2026-04-19 07:40:05
node/4927525625,KPR convenience store,Food & Produce,food_produce,food-and-produce,"20 Kensington Park Road, Bristol, BS4 3HP",bristol,brislington,kpr-convenience-store,51.4360776,-2.5573783,,,,,,,,,,,,"{""convenience""}",independent,,,,,,,,,,,pending,standard,OpenStreetMap,2026-04-19,2026-04-19 07:40:05
node/9256649118,Beats Street food party (Bristol eats),Food & Produce,food_produce,food-and-produce,,,,beats-street-food-party-bristol-eats,51.4430612,-2.5675415,,,,,,,,,,,,"{""restaurant""}",independent,,,,,,,,,,,pending,standard,OpenStreetMap,2026-04-19,2026-04-19 07:40:05
node/3683487308,Bellevue Convenience Store,Food & Produce,food_produce,food-and-produce,"26 Bellevue Park, Bristol, BS4 4JR",bristol,brislington,bellevue-convenience-store,51.4359564,-2.5483582,,https://www.premier-stores.co.uk/our-stores/bellevue-stores,,06:00-22:00,,,,,,,,"{""convenience""}",independent,,,,,,,,,,,pending,standard,OpenStreetMap,2026-04-19,2026-04-19 07:40:05
node/13563276201,L'oro di Napoli - Pizzeria & Trattoria,Food & Produce,food_produce,food-and-produce,"3 Birchwood Road, BS4 4QH",,,loro-di-napoli-pizzeria-trattoria,51.4484988,-2.5418437,+44 117 301 8938,,,"Sa 12:00-14:30, 17:00-21:00; Su 12:00-21:00; Tu-Fr 17:00-22:00",,,,,,,,"{""restaurant"",""italian_pizza""}",independent,,,,,,,,,,,pending,standard,OpenStreetMap,2026-04-19,2026-04-19 07:40:05
node/1386051923,No. 4,Food & Produce,food_produce,food-and-produce,"4 Rodney Place, Bristol, BS8 4HY",bristol,,no-4,51.4555718,-2.6198581,+44 117 9735422,http://www.numberfourrestaurant.co.uk/,,,,,,,,,,"{""restaurant""}",independent,,,,,,,,,,,pending,standard,OpenStreetMap,2026-04-19,2026-04-19 07:40:05
node/4585598405,Botanica,Food & Produce,food_produce,food-and-produce,Victoria Square Hotel Clifton Road,,,botanica,51.4553023,-2.6152704,,,,,,,,,,,,"{""restaurant"",""italian""}",independent,,,,,,,Q4095087,,,,pending,standard,OpenStreetMap,2026-04-19,2026-04-19 07:40:05
node/853556896,Caffe Clifton,Food & Produce,food_produce,food-and-produce,,,,caffe-clifton,51.4587343,-2.6110204,,,,,,,,,,,,"{""restaurant""}",independent,,,,,,,,,,,pending,standard,OpenStreetMap,2026-04-19,2026-04-19 07:40:05
node/4375465482,Racks,Food & Produce,food_produce,food-and-produce,"Clifton Hotel Saint Pauls Road, Bristol, BS8 1LX",bristol,clifton,racks,51.4587718,-2.6109288,+44 117 9741626,http://www.racks-bristol.co.uk/,,,,,,,,,,"{""restaurant""}",independent,https://www.facebook.com/RacksBristol,,@RacksBristol,,,,,,,,pending,standard,OpenStreetMap,2026-04-19,2026-04-19 07:40:05
node/4484476589,Mi Estilo,Food & Produce,food_produce,food-and-produce,,,,mi-estilo,51.4592066,-2.6109863,,,,,,,,,,,,"{""restaurant""}",independent,,,,,,,,,,,pending,standard,OpenStreetMap,2026-04-19,2026-04-19 07:40:05
node/11610244769,Saucy Dough,Food & Produce,food_produce,food-and-produce,,,,saucy-dough,51.4525812,-2.6034284,,https://www.saucy-dough.com/,,Tu-Sa 10:00-18:00,,,,,,,,"{""restaurant"",""hungarian""}",independent,,,,,,,,,,,pending,standard,OpenStreetMap,2026-04-19,2026-04-19 07:40:05
node/11670174843,Square Club,Food & Produce,food_produce,food-and-produce,,,,square-club,51.4553396,-2.6065951,,,,,,,,Dining club in Edwardian London,,,,"{""restaurant""}",independent,,,,,,,Q7582004,,,,pending,standard,OpenStreetMap,2026-04-19,2026-04-19 07:40:05
node/12375791342,My Burrito,Food & Produce,food_produce,food-and-produce,"Waverley House Cathedral Walk, Bristol, BS1 5LW",bristol,city-centre,my-burrito,51.4495064,-2.6027411,,,,,,,,,,,,"{""restaurant""}",independent,,,,,,,,,,,pending,standard,OpenStreetMap,2026-04-19,2026-04-19 07:40:05
node/12959516233,Broken Dock,Food & Produce,food_produce,food-and-produce,"Millennium Promenade, Bristol, BS1 5SY",bristol,,broken-dock,51.449585,-2.6057055,,,,,,,,,,,,"{""restaurant""}",independent,,,,,,,,,,,pending,standard,OpenStreetMap,2026-04-19,2026-04-19 07:40:05
node/12959516246,Harbour Hub,Food & Produce,food_produce,food-and-produce,"Lime Kiln Road, Bristol, BS1 5AU",bristol,city-centre,harbour-hub,51.4499095,-2.6060658,,,,"Mo-Th 12:00-22:00; Fr,Sa 09:00-22:00; Su 09:00-21:00",,,,,,,,"{""restaurant""}",independent,,,,,,,,,,,pending,standard,OpenStreetMap,2026-04-19,2026-04-19 07:40:05
node/12959516255,Restore,Food & Produce,food_produce,food-and-produce,,,,restore,51.449892,-2.6063525,,,,,,,,"Nonprofit organization in London, United Kingdom",,,,"{""deli""}",independent,,,,,,,Q52851423,,,,pending,standard,OpenStreetMap,2026-04-19,2026-04-19 07:40:05
node/12961242030,Steak of the Art,Food & Produce,food_produce,food-and-produce,"Balmoral House Cathedral Walk, Bristol, BS1 5LW",bristol,city-centre,steak-of-the-art,51.4496316,-2.6030011,,,,,,,,,,,,"{""restaurant"",""steak_house""}",independent,,,,,,,,,,,pending,standard,OpenStreetMap,2026-04-19,2026-04-19 07:40:05
node/12961242059,PizzaExpress,Food & Produce,food_produce,food-and-produce,"Building 8 Explore Lane, Bristol, BS1 5TY",bristol,city-centre,pizzaexpress,51.4499452,-2.6022227,,https://www.pizzaexpress.com/bristol-harbourside,,,,,,Restaurant group mainly in the United Kingdom,,,,"{""restaurant"",""pizza""}",independent,,,,,,,Q662845,,,,pending,standard,OpenStreetMap,2026-04-19,2026-04-19 07:40:05
node/12961242061,Tesco Express,Food & Produce,food_produce,food-and-produce,"Canons Way, Bristol, BS1 5JZ",bristol,city-centre,tesco-express,51.4499169,-2.6028876,,https://www.tesco.com/store-locator/bristol/7-millennium-parade,,,,,,Brand for smaller convenience-style Tesco food stores in the UK and in some other countries where Tesco operates,,,,"{""convenience""}",chain,,,,,,,Q98456772,,,,pending,low,OpenStreetMap,2026-04-19,2026-04-19 07:40:05
node/13140802663,Hotwells Eatery,Food & Produce,food_produce,food-and-produce,"4 Jacobs Wells Road, Bristol, BS8 1EA",bristol,city-centre,hotwells-eatery,51.45113,-2.6076958,,,info@hotwellseatery.co.uk,"Tu-Fr 08:30-14:00,17:00-23:00; Sa-Su 09:00-14:00,17:00-23:00",,,,,,,,"{""restaurant"",""indian""}",independent,,,,,,,,,,,pending,standard,OpenStreetMap,2026-04-19,2026-04-19 07:40:05
node/4538695029,Hanover Street Bistro,Food & Produce,food_produce,food-and-produce,"Bristol Hippodrome Colston Avenue, Bristol, BS1 4UZ",bristol,city-centre,hanover-street-bistro,51.4530972,-2.5983075,,,,,,,,,,,,"{""restaurant""}",independent,,,,,,,,,,,pending,standard,OpenStreetMap,2026-04-19,2026-04-19 07:40:05
node/5254795218,The Harbourside Market,Food & Produce,food_produce,food-and-produce,"Bristol, BS1 4DA",bristol,,the-harbourside-market,51.4526246,-2.5975738,,,,We-Th 12:00-14:30; Sa-Su 11:00-16:00,,,,,,,,"{""marketplace""}",independent,,,,,,,,,,,pending,standard,OpenStreetMap,2026-04-19,2026-04-19 07:40:05
node/6122351967,Miller & Carter Steakhouse,Food & Produce,food_produce,food-and-produce,"Marriott Royal Hotel College Green, Bristol, BS1 5TA",bristol,city-centre,miller-carter-steakhouse,51.4516769,-2.5994991,,https://www.millerandcarter.co.uk/restaurants/south-west/millerandcarterbristolcitycentre,,,,,,,,,,"{""restaurant"",""steak_house""}",independent,,,,,,,,,,,pending,standard,OpenStreetMap,2026-04-19,2026-04-19 07:40:05
node/12421175032,Meet up noodle bar,Food & Produce,food_produce,food-and-produce,,,,meet-up-noodle-bar,51.4531036,-2.5963192,,,,,,,,,,,,"{""restaurant"",""noodle""}",independent,,,,,,,,,,,pending,standard,OpenStreetMap,2026-04-19,2026-04-19 07:40:05
node/12435832628,Langyu,Food & Produce,food_produce,food-and-produce,"Bristol, BS1 1NA",bristol,,langyu,51.4534729,-2.5957437,,,,,,,,,,,,"{""convenience"",""chinese"",""japanese"",""korean""}",independent,,,,,,,,,,,pending,standard,OpenStreetMap,2026-04-19,2026-04-19 07:40:05
node/12802207576,Bambalan,Food & Produce,food_produce,food-and-produce,"Beacon Tower Colston Street, Bristol, BS1 4XE",bristol,city-centre,bambalan,51.4544053,-2.5976217,,,,,,,,,,,,"{""restaurant""}",independent,,,,,,,,,,,pending,standard,OpenStreetMap,2026-04-19,2026-04-19 07:40:05
node/12973082089,Za Za Bazaar,Food & Produce,food_produce,food-and-produce,"U Shed Canons Road, Bristol, BS1 5UH, GB",bristol,city-centre,za-za-bazaar,51.450495,-2.5984782,+44 117 9220330,http://www.zazabazaar.com/,enquiries@zazabazaar.com,,,,,,,,,"{""restaurant"",""regional""}",independent,http://www.facebook.com/ZaZaBazaar,,ZaZaBazaar,,,,Q67175730,,,,pending,standard,OpenStreetMap,2026-04-19,2026-04-19 07:40:05
node/12973154723,Izakaya,Food & Produce,food_produce,food-and-produce,"39-43 College Green, Bristol, BS1 5SH",bristol,city-centre,izakaya,51.4524634,-2.5991253,,,,,,,,,,,,"{""restaurant"",""japanese""}",independent,,,,,,,,,,,pending,standard,OpenStreetMap,2026-04-19,2026-04-19 07:40:05
node/13043575645,Pho,Food & Produce,food_produce,food-and-produce,"28 Clare Street, Bristol, BS1 1YA, GB",bristol,city-centre,pho,51.4539449,-2.5953749,,https://www.phocafe.co.uk/locations/bristol/,,,,,,,,,,"{""restaurant"",""vietnamese""}",independent,,,,,,,,,,,pending,standard,OpenStreetMap,2026-04-19,2026-04-19 07:40:05
node/2988644443,M&S Food,Food & Produce,food_produce,food-and-produce,,,,m-s-food,51.4585046,-2.5963784,,https://www.marksandspencer.com/stores/bristol-royal-nhs-hospital-1259,,Mo-Fr 07:00-21:00; Sa 07:00-20:00; Su 09:00-17:00,,,,,,,,"{""convenience""}",independent,,,,,,,,,,,pending,standard,OpenStreetMap,2026-04-19,2026-04-19 07:40:05
node/1892330960,Whiteladies Road Farmers' Market,Food & Produce,food_produce,food-and-produce,,,,whiteladies-road-farmers-market,51.4680955,-2.6133877,,,,,,,,,,,,"{""marketplace""}",independent,,,,,,,,,,,pending,standard,OpenStreetMap,2026-04-19,2026-04-19 07:40:05
node/4636349774,Pepenero,Food & Produce,food_produce,food-and-produce,,,,pepenero,51.4516525,-2.5945044,,,,,,,,,,,,"{""restaurant"",""pizza""}",independent,,,,,,,,,,,pending,standard,OpenStreetMap,2026-04-19,2026-04-19 07:40:05
node/4741651070,La Lola,Food & Produce,food_produce,food-and-produce,"Glass Arcade Saint Nicholas Street, Bristol, BS1 1JQ",bristol,,la-lola,51.4541726,-2.5934183,,,,,,,,,,,,"{""restaurant"",""spanish""}",independent,,,,,,,,,,,pending,standard,OpenStreetMap,2026-04-19,2026-04-19 07:40:05
node/5158767921,The Ox,Food & Produce,food_produce,food-and-produce,"43-45 Corn Street, Bristol, BS1 1HT",bristol,city-centre,the-ox,51.4544608,-2.5944729,,,,,,,,,,,,"{""restaurant""}",independent,,,,,,,,,,,pending,standard,OpenStreetMap,2026-04-19,2026-04-19 07:40:05
node/5227261018,Flat Iron Bristol,Food & Produce,food_produce,food-and-produce,"30 Clare Street, Bristol, BS1 1YH",bristol,city-centre,flat-iron-bristol,51.454011,-2.5951138,,https://flatironsteak.co.uk/restaurant/bristol/,,,,,,,,,,"{""restaurant"",""steak_house""}",independent,,,,,,,,,,,pending,standard,OpenStreetMap,2026-04-19,2026-04-19 07:40:05
node/5492266401,Hot Sauce Emporium,Food & Produce,food_produce,food-and-produce,"Corn Street, Bristol, BS1 1HQ",bristol,city-centre,hot-sauce-emporium,51.454533,-2.5934404,,,,,,,,,,,,"{""deli""}",independent,,,,,,,,,,,pending,standard,OpenStreetMap,2026-04-19,2026-04-19 07:40:05
node/6708343732,Hoba,Food & Produce,food_produce,food-and-produce,,,,hoba,51.4516096,-2.5943149,,,,,,,,,,,,"{""restaurant"",""kebab""}",independent,,,,,,,,,,,pending,standard,OpenStreetMap,2026-04-19,2026-04-19 07:40:05
node/9689558217,Bocabar-Finzels,Food & Produce,food_produce,food-and-produce,"1 Hawkins Lane, BS1 6JQ",,,bocabar-finzels,51.4539791,-2.5891427,,https://www.bocabar.co.uk/finzels,,Mo-Th 12:00-23:00; Fr 12:00-24:00; Sa 10:30-24:00; Su off,,,,,,,,"{""restaurant""}",independent,,,,,,,,,,,pending,standard,OpenStreetMap,2026-04-19,2026-04-19 07:40:05
node/10847736105,Lamaya,Food & Produce,food_produce,food-and-produce,Hawkins Lane,,,lamaya,51.4541718,-2.5893632,,,,Mo-Su 12:00-23:00,,,,,,,,"{""restaurant"",""lebanese""}",independent,,,,,,,,,,,pending,standard,OpenStreetMap,2026-04-19,2026-04-19 07:40:05
node/12422238998,Red tiger Malaysian Street food,Food & Produce,food_produce,food-and-produce,,,,red-tiger-malaysian-street-food,51.4540274,-2.5930786,,,,,,,,,,,,"{""restaurant"",""asian""}",independent,,,,,,,,,,,pending,standard,OpenStreetMap,2026-04-19,2026-04-19 07:40:05
node/12630418976,Le vignoble,Food & Produce,food_produce,food-and-produce,,,,le-vignoble,51.454243,-2.5894228,,,,"Mo-Th 12:00-23:00; Fr,Sa 12:00-24:00",,,,,,,,"{""restaurant""}",independent,,,,,,,,,,,pending,standard,OpenStreetMap,2026-04-19,2026-04-19 07:40:05
node/13101183745,San Carlo,Food & Produce,food_produce,food-and-produce,"44 Corn Street, Bristol, BS1 1HQ",bristol,city-centre,san-carlo,51.4543925,-2.5940627,,,,Tu-Su 12:00-21:00,,,,,,,,"{""restaurant""}",independent,,,,,,,,,,,pending,standard,OpenStreetMap,2026-04-19,2026-04-19 07:40:05
node/13114852098,Rudy's,Food & Produce,food_produce,food-and-produce,"36-38 Baldwin Street, Bristol, BS1 1NR",bristol,city-centre,rudys,51.4532622,-2.5943528,,https://www.rudyspizza.co.uk/location/bristol/,,,,,,,,,,"{""restaurant"",""pizza""}",independent,,,,,,,,,,,pending,standard,OpenStreetMap,2026-04-19,2026-04-19 07:40:05
node/13114906356,Pasture Butchers,Food & Produce,food_produce,food-and-produce,"Tannery House St Thomas Street, Bristol, BS1 6ZD",bristol,redcliffe,pasture-butchers,51.4517079,-2.5891006,,https://primebypasture.com/,,,,,,,,,,"{""butcher""}",independent,,,,,,,,,,,pending,standard,OpenStreetMap,2026-04-19,2026-04-19 07:40:05
node/13114906357,Prime,Food & Produce,food_produce,food-and-produce,"Tannery House St Thomas Street, Bristol, BS1 6ZD",bristol,redcliffe,prime,51.4516748,-2.5890785,,https://primebypasture.com/,,,,,,,,,,"{""restaurant""}",independent,,,,,,,,,,,pending,standard,OpenStreetMap,2026-04-19,2026-04-19 07:40:05
node/13114963983,Giuseppe's On The Steps,Food & Produce,food_produce,food-and-produce,"59-63 Baldwin Street, Bristol, BS1 1QZ",bristol,city-centre,giuseppes-on-the-steps,51.4537173,-2.5932649,,https://giuseppesitalianrestaurant.co.uk/,,,,,,,,,,"{""restaurant"",""italian""}",independent,,,,,,,,,,,pending,standard,OpenStreetMap,2026-04-19,2026-04-19 07:40:05
node/13125158252,Tesco Express,Food & Produce,food_produce,food-and-produce,"11-19 Wine Street, Bristol, BS1 2PH",bristol,city-centre,tesco-express,51.4553564,-2.592282,,https://www.tesco.com/store-locator/bristol/prudential-buildings,,Mo-Su 06:00-23:00,,,,,,,,"{""convenience""}",chain,,,,,,,,,,,pending,low,OpenStreetMap,2026-04-19,2026-04-19 07:40:05
node/13231401367,Adelina Yard,Food & Produce,food_produce,food-and-produce,"Queen Quay Welsh Back, Bristol, BS1 4SL",bristol,city-centre,adelina-yard,51.450437,-2.5925478,,,,,,,,,,,,"{""restaurant""}",independent,,,,,,,,,,,pending,standard,OpenStreetMap,2026-04-19,2026-04-19 07:40:05
node/13730347393,Bella Vista,Food & Produce,food_produce,food-and-produce,"2b Victoria Street, Bristol, BS1 6BN",bristol,redcliffe,bella-vista,51.4535351,-2.5908047,,,,,,,,,,,,"{""restaurant"",""italian""}",independent,,,,,,,,,,,pending,standard,OpenStreetMap,2026-04-19,2026-04-19 07:40:05
node/1881624837,Recess,Food & Produce,food_produce,food-and-produce,"Hilton Garden Inn Bristol City Centre Temple Rose Street, Bristol, BS1 6BF",bristol,,recess,51.451431,-2.5851966,,,,Mo-Fr 06:00-22:00; Sa-Su 07:30-22:00,,,,,,,,"{""restaurant"",""regional""}",independent,,,,,,,,,,,pending,standard,OpenStreetMap,2026-04-19,2026-04-19 07:40:05
node/3940436646,McColl's,Food & Produce,food_produce,food-and-produce,"1 Temple Way, Bristol, BS2 0BY",bristol,redcliffe,mccolls,51.4544401,-2.5828401,,https://www.mccolls.co.uk/storelocator/bristol-temple-way/,,,,,,,,,,"{""convenience""}",independent,,,,,,,,,,,pending,standard,OpenStreetMap,2026-04-19,2026-04-19 07:40:05
node/9858050617,Temple Quay Market,Food & Produce,food_produce,food-and-produce,,,,temple-quay-market,51.4510686,-2.5821323,,https://www.templequaymarket.co.uk/,,"Tu,Th 12:00-14:00",,,,,,,,"{""marketplace""}",independent,,templequaymarket,,,,,,,,,pending,standard,OpenStreetMap,2026-04-19,2026-04-19 07:40:05
node/12883505829,Celebration Cake Centre,Food & Produce,food_produce,food-and-produce,"58 Victoria Street, Bristol, BS1 6DE",bristol,,celebration-cake-centre,51.451937,-2.5873148,,,,,,,,,,,,"{""confectionery""}",independent,,,,,,,Q26571052,,,,pending,standard,OpenStreetMap,2026-04-19,2026-04-19 07:40:05
node/12883505831,Temple News,Food & Produce,food_produce,food-and-produce,"62-64 Victoria Street, Bristol, BS1 6DE",bristol,redcliffe,temple-news,51.4518549,-2.587274,,,,,,,,,,,,"{""convenience""}",independent,,,,,,,,,,,pending,standard,OpenStreetMap,2026-04-19,2026-04-19 07:40:05
node/12883505850,Greggs,Food & Produce,food_produce,food-and-produce,"Transom House Victoria Street, Bristol, BS1 6AH",bristol,,greggs,51.451851,-2.5879223,,,,,,,,,,,,"{""fast_food"",""bakery"",""sandwich"",""bakery""}",chain,,,,,,,,,,,pending,low,OpenStreetMap,2026-04-19,2026-04-19 07:40:05
node/2900424207,Perfect Pizza,Food & Produce,food_produce,food-and-produce,,,,perfect-pizza,51.4564397,-2.589893,,,,,,,,,,,,"{""restaurant"",""pizza""}",independent,,,,,,,,,,,pending,standard,OpenStreetMap,2026-04-19,2026-04-19 07:40:05
node/2900427077,Cornish Bakehouse,Food & Produce,food_produce,food-and-produce,"16 Castle Gallery, Bristol, BS1 3XE",bristol,,cornish-bakehouse,51.4561107,-2.5902276,,,,,,,,,,,,"{""bakery""}",independent,,,,,,,,,,,pending,standard,OpenStreetMap,2026-04-19,2026-04-19 07:40:05
node/2900429302,Parsons,Food & Produce,food_produce,food-and-produce,,,,parsons,51.4571069,-2.5893435,,,,,,,,,,,,"{""bakery""}",independent,,,,,,,,,,,pending,standard,OpenStreetMap,2026-04-19,2026-04-19 07:40:05
node/6797583343,168 Oriental,Food & Produce,food_produce,food-and-produce,"Little Chinatown Nelson Street, Bristol, BS1 2BJ",bristol,,168-oriental,51.4565424,-2.5944082,,,,Mo-Su 10:00-21:00,,,,,,,,"{""supermarket""}",independent,,,,,,,,,,,pending,standard,OpenStreetMap,2026-04-19,2026-04-19 07:40:05
node/9955013617,Premier Express,Food & Produce,food_produce,food-and-produce,,,,premier-express,51.4618394,-2.5902184,,https://www.premier-stores.co.uk/our-stores/green-croft,,,,,,,,,,"{""convenience""}",independent,,,,,,,,,,,pending,standard,OpenStreetMap,2026-04-19,2026-04-19 07:40:05
node/11060131505,Sai Kung Cafe,Food & Produce,food_produce,food-and-produce,,,,sai-kung-cafe,51.4565546,-2.5942049,,,,Fr-We 12:00-21:00,,,,,,,,"{""restaurant"",""chinese""}",independent,,,,,,,,,,,pending,standard,OpenStreetMap,2026-04-19,2026-04-19 07:40:05
node/12271978670,Londis,Food & Produce,food_produce,food-and-produce,,,,londis,51.4567638,-2.5940716,,,,,,,,,,,,"{""convenience""}",independent,,,,,,,,,,,pending,standard,OpenStreetMap,2026-04-19,2026-04-19 07:40:05
node/13125158234,Crispy Dosa,Food & Produce,food_produce,food-and-produce,"7 Union Street, Bristol, BS1 2DD",bristol,,crispy-dosa,51.4559396,-2.5909478,,,,"Mo-Fr 10:00-22:00; Sa,Su 09:00-22:00",,,,,,,,"{""restaurant"",""indian""}",independent,,,,,,,,,,,pending,standard,OpenStreetMap,2026-04-19,2026-04-19 07:40:05
node/13203041401,Greggs,Food & Produce,food_produce,food-and-produce,Broadmead,,,greggs,51.4574679,-2.5902567,,,,,,,,,,,,"{""bakery""}",chain,,,,,,,,,,,pending,low,OpenStreetMap,2026-04-19,2026-04-19 07:40:05
node/13257302290,Niji Sushi Bristol,Food & Produce,food_produce,food-and-produce,"63 Union Street, Bristol, BS1 2DU",bristol,,niji-sushi-bristol,51.45766,-2.5924973,+44 787 424 3583,https://nijisushibristol.com,nijisushiltd@gmail.com,We-Sa 12:00-21:30; Su 12:00-20:30,,,,,,,,"{""restaurant"",""japanese"",""sushi""}",independent,,,,,,,,,,,pending,standard,OpenStreetMap,2026-04-19,2026-04-19 07:40:05
node/3841830908,H&B,Food & Produce,food_produce,food-and-produce,,,,h-b,51.4584695,-2.5843582,,,,,,,,,,,,"{""deli""}",independent,,,,,,,,,,,pending,standard,OpenStreetMap,2026-04-19,2026-04-19 07:40:05
node/6498829556,Frankie & Benny's,Food & Produce,food_produce,food-and-produce,"Cabot Circus Glass House, Bristol, BS1 3BX",bristol,city-centre,frankie-bennys,51.4580177,-2.584717,,https://www.frankieandbennys.com/restaurants/bristol-cabot-circus,,Mo-Th 11:00-21:00; Fr-Sa 10:00-22:00; Su 10:00-21:00,,,,,,,,"{""restaurant"",""american""}",independent,,,,,,,,,,,pending,standard,OpenStreetMap,2026-04-19,2026-04-19 07:40:05
node/6498829557,Wagamama,Food & Produce,food_produce,food-and-produce,"83A Glass House, Bristol, BS1 3BX",bristol,city-centre,wagamama,51.4581716,-2.5845848,,https://wagamama.com/restaurants/bristol/bristol-cabot-circus,,Mo-Fr 11:30-23:00; Sa 11:00-23:00; Su 11:30-21:30,,,,,,,,"{""restaurant"",""asian""}",independent,,,,,,,,,,,pending,standard,OpenStreetMap,2026-04-19,2026-04-19 07:40:05
node/6498829558,Nando's,Food & Produce,food_produce,food-and-produce,"82 Glass House, Bristol, BS1 3BX",bristol,city-centre,nandos,51.4582938,-2.5844734,,https://www.nandos.co.uk/restaurants/bristol-cabot-circus,,Su-Tu 11:00-22:00; We-Sa 11:00-23:00,,,,,,,,"{""restaurant"",""chicken"",""portuguese""}",independent,,,,,,,,,,,pending,standard,OpenStreetMap,2026-04-19,2026-04-19 07:40:05
node/6498829559,Bella Italia,Food & Produce,food_produce,food-and-produce,"79 Glass House, Bristol, BS1 3BX",bristol,city-centre,bella-italia,51.4584168,-2.5843737,,,,,,,,,,,,"{""restaurant"",""italian""}",independent,,,,,,,,,,,pending,standard,OpenStreetMap,2026-04-19,2026-04-19 07:40:05
node/6498829564,Hotel Chocolat,Food & Produce,food_produce,food-and-produce,"Cabot Circus Brigstowe Street, Bristol, BS1 3BH",bristol,,hotel-chocolat,51.4584466,-2.5845914,,,,,,,,,,,,"{""confectionery""}",independent,,,,,,,,,,,pending,standard,OpenStreetMap,2026-04-19,2026-04-19 07:40:05
node/6498830785,Zizzi,Food & Produce,food_produce,food-and-produce,"84D Glass House, Bristol, BS1 3BX",bristol,city-centre,zizzi,51.4589065,-2.5850237,,https://www.zizzi.co.uk/italian/restaurants/bristol-cabot-circus,,,,,,,,,,"{""restaurant"",""italian""}",independent,,,,,,,,,,,pending,standard,OpenStreetMap,2026-04-19,2026-04-19 07:40:05
node/6498830786,Coal Grill & Bar,Food & Produce,food_produce,food-and-produce,"Cabot Circus Glass House, Bristol, BS1 3BX",bristol,city-centre,coal-grill-bar,51.458895,-2.5848275,,,,,,,,,,,,"{""restaurant"",""barbecue""}",independent,,,,,,,,,,,pending,standard,OpenStreetMap,2026-04-19,2026-04-19 07:40:05
node/6498830787,The Real Greek,Food & Produce,food_produce,food-and-produce,"Cabot Circus Glass House, Bristol, BS1 3BX",bristol,city-centre,the-real-greek,51.4589181,-2.5852199,,,,,,,,,,,,"{""restaurant"",""greek""}",independent,,,,,,,,,,,pending,standard,OpenStreetMap,2026-04-19,2026-04-19 07:40:05
node/6498830793,TGI Fridays,Food & Produce,food_produce,food-and-produce,"49 The Circus, Bristol, BS1 3BD",bristol,city-centre,tgi-fridays,51.4589198,-2.5855855,,,,,,,,,,,,"{""restaurant"",""american""}",independent,,,,,,,,,,,pending,standard,OpenStreetMap,2026-04-19,2026-04-19 07:40:05
node/6498830794,Millie's Cookies,Food & Produce,food_produce,food-and-produce,"Cabot Circus Concorde Street, Bristol, BS1 3BD",bristol,city-centre,millies-cookies,51.4585911,-2.5854058,,,,,,,,,,,,"{""bakery""}",independent,,,,,,,,,,,pending,standard,OpenStreetMap,2026-04-19,2026-04-19 07:40:05
node/6498830803,Ben's Cookies,Food & Produce,food_produce,food-and-produce,"Cabot Circus George White Street, Bristol, BS1 3BA",bristol,city-centre,bens-cookies,51.4584181,-2.5863674,,,,,,,,,,,,"{""confectionery""}",independent,,,,,,,,,,,pending,standard,OpenStreetMap,2026-04-19,2026-04-19 07:40:05
node/6498830809,YO! Sushi,Food & Produce,food_produce,food-and-produce,"72 Glass Walk, Bristol, BS1 3BQ",bristol,city-centre,yo-sushi,51.4583613,-2.5851262,,https://yosushi.com/restaurants/bristol-cabot-circus,,,,,,,,,,"{""restaurant"",""sushi""}",independent,,,,,,,,,,,pending,standard,OpenStreetMap,2026-04-19,2026-04-19 07:40:05
node/6498830811,Spud U Like,Food & Produce,food_produce,food-and-produce,"72 Glass Walk, Bristol, BS1 3BQ",bristol,city-centre,spud-u-like,51.4582023,-2.5854633,,,,,,,,,,,,"{""restaurant""}",independent,,,,,,,,,,,pending,standard,OpenStreetMap,2026-04-19,2026-04-19 07:40:05
node/6498830838,PizzaExpress,Food & Produce,food_produce,food-and-produce,"Cabot Circus Glass Walk, Bristol, BS1 3BQ",bristol,city-centre,pizzaexpress,51.458515,-2.5858282,+44 117 925 8700,https://www.pizzaexpress.com/bristol-cabot-circus-shopping-centre,,Mo-Su 11:30-22:00,,,,,,,,"{""restaurant"",""pizza""}",independent,,,,,,,,,,,pending,standard,OpenStreetMap,2026-04-19,2026-04-19 07:40:05
node/6498830840,Casa Brasil,Food & Produce,food_produce,food-and-produce,"Cabot Circus Glass Walk, Bristol, BS1 3BQ",bristol,city-centre,casa-brasil,51.4584732,-2.5861569,,,,,,,,,,,,"{""restaurant"",""brazilian""}",independent,,,,,,,,,,,pending,standard,OpenStreetMap,2026-04-19,2026-04-19 07:40:05
node/6716789567,Farro Bakery,Food & Produce,food_produce,food-and-produce,"1 Brunswick Square, Bristol, BS2 8PE",bristol,saint-pauls,farro-bakery,51.4595848,-2.5878972,,,,,,,,,,,,"{""bakery""}",independent,,,,,,,,,,,pending,standard,OpenStreetMap,2026-04-19,2026-04-19 07:40:05
node/13516711319,M&S Simply Food,Food & Produce,food_produce,food-and-produce,,,,m-s-simply-food,51.4587231,-2.5845982,,,,,,,,,,,,"{""supermarket""}",independent,,,,,,,,,,,pending,standard,OpenStreetMap,2026-04-19,2026-04-19 07:40:05
node/2141950431,West Cornwall Pasty Co.,Food & Produce,food_produce,food-and-produce,"Between Plat 7-8, Bristol, BS1 6QS",bristol,,west-cornwall-pasty-co,51.4493843,-2.5803204,,,,Mo-Sa 06:30-21:00; Su 08:00-20:00,,,,,,,,"{""fast_food"",""bakery"",""pasty""}",independent,,,,,,,,,,,pending,standard,OpenStreetMap,2026-04-19,2026-04-19 07:40:05
node/9591999712,Sainsbury's Local,Food & Produce,food_produce,food-and-produce,Avon Street,,,sainsburys-local,51.4529534,-2.5816259,+44 330 013 7711,https://stores.sainsburys.co.uk/6029/bristol-avon-street-local,,Mo-Su 07:00-23:00,,,,,,,,"{""convenience""}",chain,,,,,,,,,,,pending,low,OpenStreetMap,2026-04-19,2026-04-19 07:40:05
node/11065214763,Deliveroo,Food & Produce,food_produce,food-and-produce,"21-22 Oxford Street, Bristol, BS2 0QT",bristol,,deliveroo,51.4513108,-2.577797,,,,Mo-Su 10:00-24:00,,,,,,,,"{""supermarket""}",independent,,,,,,,,,,,pending,standard,OpenStreetMap,2026-04-19,2026-04-19 07:40:05
node/11065214765,Forest bakery,Food & Produce,food_produce,food-and-produce,"26 Oxford Street, Bristol, BS2 0QT",bristol,,forest-bakery,51.4514109,-2.5773641,,,,,,,,,,,,"{""bakery""}",independent,,,,,,,,,,,pending,standard,OpenStreetMap,2026-04-19,2026-04-19 07:40:05
node/12806046076,Cakesmiths,Food & Produce,food_produce,food-and-produce,,,,cakesmiths,51.4553078,-2.5761271,,,,,,,,,,,,"{""bakery""}",independent,,,,,,,,,,,pending,standard,OpenStreetMap,2026-04-19,2026-04-19 07:40:05
node/12806061116,Mokoko,Food & Produce,food_produce,food-and-produce,,,,mokoko,51.4526596,-2.5806332,,,,,,,,,,,,"{""cafe"",""bakery""}",independent,,,,,,,,,,,pending,standard,OpenStreetMap,2026-04-19,2026-04-19 07:40:05
node/12768830718,Benchmarx,Food & Produce,food_produce,food-and-produce,,,,benchmarx,51.4540431,-2.5710637,,,,,,,,,,,,"{""kitchen""}",independent,,,,,,,,,,,pending,standard,OpenStreetMap,2026-04-19,2026-04-19 07:40:05
node/12598276347,Old Market Express,Food & Produce,food_produce,food-and-produce,"60 West Street, Bristol, BS2 0BL",bristol,st-philips,old-market-express,51.4570923,-2.5774617,,,,,,,,,,,,"{""convenience""}",independent,,,,,,,,,,,pending,standard,OpenStreetMap,2026-04-19,2026-04-19 07:40:05
node/12598276362,Bulgarian Food Market,Food & Produce,food_produce,food-and-produce,"70 West Street, Bristol, BS2 0BL",bristol,st-philips,bulgarian-food-market,51.4571669,-2.5772071,,,,,,,,,,,,"{""deli""}",independent,,,,,,,,,,,pending,standard,OpenStreetMap,2026-04-19,2026-04-19 07:40:05
node/12806029168,Bakehouse,Food & Produce,food_produce,food-and-produce,6 Kingsland Trading Estate St. Philips Road,,,bakehouse,51.456024,-2.5758755,,https://bakehousebristol.com/,,"Mo-Fr 07:30-16:00; Sa, Su 08:00-16:00",,,,,,,,"{""bakery""}",independent,,,,,,,,,,,pending,standard,OpenStreetMap,2026-04-19,2026-04-19 07:40:05
node/13136156593,Gigi's Pizza Shop,Food & Produce,food_produce,food-and-produce,"47 Old Market Street, Bristol, BS2 0EX, GB",bristol,saint-philips,gigis-pizza-shop,51.4564907,-2.580398,,https://gigispizzashop.com/,,,,,,,,,,"{""restaurant"",""pizza""}",independent,,,,,,,,,,,pending,standard,OpenStreetMap,2026-04-19,2026-04-19 07:40:05
node/13136156595,Deocraft Cakes,Food & Produce,food_produce,food-and-produce,"45 Old Market Street, Bristol, BS2 0EX, GB",bristol,saint-philips,deocraft-cakes,51.4564431,-2.5805535,,,,,,,,,,,,"{""bakery""}",independent,,,,,,,,,,,pending,standard,OpenStreetMap,2026-04-19,2026-04-19 07:40:05
node/13175131322,The organic store,Food & Produce,food_produce,food-and-produce,,,,the-organic-store,51.456108,-2.5808207,,,,,,,,,,,,"{""supermarket""}",independent,,,,,,,,,,,pending,standard,OpenStreetMap,2026-04-19,2026-04-19 07:40:05
node/13609196101,Tomo No Ramen,Food & Produce,food_produce,food-and-produce,"55 West Street, BS2 0BZ",,,tomo-no-ramen,51.4572061,-2.5779167,,https://tomonoramen.co.uk/,,,,,,,,,,"{""restaurant"",""japanese"",""ramen""}",independent,,,,,,,,,,,pending,standard,OpenStreetMap,2026-04-19,2026-04-19 07:40:05
node/13609201501,Tomo No Ramen,Food & Produce,food_produce,food-and-produce,"55 West Street, BS2 0BZ",,,tomo-no-ramen,51.4572061,-2.5779167,,https://tomonoramen.co.uk/,,"Tu-Fr 17:30-22:00; Sa 12:00-14:30, 17:30-22:00",,,,,,,,"{""restaurant"",""japanese"",""ramen""}",independent,,,,,,,,,,,pending,standard,OpenStreetMap,2026-04-19,2026-04-19 07:40:05
node/494774625,The Canteen,Food & Produce,food_produce,food-and-produce,"80 Stokes Croft, Bristol, BS1 3QY",bristol,,the-canteen,51.4629405,-2.5896689,+44 117 923 2017,https://www.canteenbristol.co.uk/,,,,,,,,,,"{""restaurant""}",independent,,,,,,,,,,,pending,standard,OpenStreetMap,2026-04-19,2026-04-19 07:40:05
node/13125536955,Elemental Collective,Food & Produce,food_produce,food-and-produce,"123 Stokes Croft, Bristol",bristol,saint-pauls,elemental-collective,51.4641376,-2.5898977,,,,,,,,,,,,"{""greengrocer""}",independent,,,,,,,,,,,pending,standard,OpenStreetMap,2026-04-19,2026-04-19 07:40:05
node/13681828901,Tropical Sun,Food & Produce,food_produce,food-and-produce,Stapleton Road,,,tropical-sun,51.4647581,-2.5701001,,,,,,,,,,,,"{""convenience""}",independent,,,,,,,,,,,pending,standard,OpenStreetMap,2026-04-19,2026-04-19 07:40:05
node/4224394858,Dragon's Delicacy,Food & Produce,food_produce,food-and-produce,"Eastgate Oriental City Eastgate Road, Bristol, BS5 6XX, GB",bristol,eastville,dragons-delicacy,51.4731908,-2.569247,,,,,,,,,,,,"{""restaurant"",""chinese""}",independent,,,,,,,,,,,pending,standard,OpenStreetMap,2026-04-19,2026-04-19 07:40:05
node/9559182677,The Butcher's Hook,Food & Produce,food_produce,food-and-produce,,,,the-butchers-hook,51.4945092,-2.6179694,,,,,,,,,,,,"{""butcher""}",independent,,,,,,,,,,,pending,standard,OpenStreetMap,2026-04-19,2026-04-19 07:40:05
node/12871380332,Spar,Food & Produce,food_produce,food-and-produce,,,,spar,51.4758269,-2.5912925,,,,,,,,,,,,"{""convenience""}",independent,,,,,,,,,,,pending,standard,OpenStreetMap,2026-04-19,2026-04-19 07:40:05
node/13279302061,BOBBYS NEWSAGENTS,Food & Produce,food_produce,food-and-produce,,,,bobbys-newsagents,51.4849639,-2.5859498,,,,,,,,,,,,"{""convenience""}",independent,,,,,,,,,,,pending,standard,OpenStreetMap,2026-04-19,2026-04-19 07:40:05
node/1924392536,Costcutter,Food & Produce,food_produce,food-and-produce,"Danby House Morris Road, Bristol, BS7 9TX",bristol,lockleaze,costcutter,51.4827833,-2.5727879,,,,,,,,,,,,"{""convenience""}",independent,,,,,,,,,,,pending,standard,OpenStreetMap,2026-04-19,2026-04-19 07:40:05
node/5816298511,M&S Food,Food & Produce,food_produce,food-and-produce,"Southmead Hospital Southmead Road, Bristol, BS10 5NB",bristol,southmead,m-s-food,51.496471,-2.5922021,,,,,,,,,,,,"{""convenience""}",independent,,,,,,,,,,,pending,standard,OpenStreetMap,2026-04-19,2026-04-19 07:40:05
node/4076049276,Barton Hill Market,Food & Produce,food_produce,food-and-produce,"186 Avonvale Road, Bristol, BS5 9SX",bristol,redfield,barton-hill-market,51.4548871,-2.5616756,,,,,,,,,,,,"{""convenience""}",independent,,,,,,,,,,,pending,standard,OpenStreetMap,2026-04-19,2026-04-19 07:40:05
node/4076049279,Alaso,Food & Produce,food_produce,food-and-produce,"184 Avonvale Road, Bristol, BS5 9SX",bristol,redfield,alaso,51.454913,-2.5615352,,,,,,,,,,,,"{""butcher""}",independent,,,,,,,,,,,pending,standard,OpenStreetMap,2026-04-19,2026-04-19 07:40:05
node/4076049281,Cafe Conscious,Food & Produce,food_produce,food-and-produce,"182 Avonvale Road, Bristol, BS5 9SX",bristol,redfield,cafe-conscious,51.454937,-2.5614042,,,,,,,,,,,,"{""restaurant"",""caribbean""}",independent,,,,,,,,,,,pending,standard,OpenStreetMap,2026-04-19,2026-04-19 07:40:05
node/8842326678,Spar,Food & Produce,food_produce,food-and-produce,"180 Avonvale Road, Bristol, BS5 9SX",bristol,redfield,spar,51.4549474,-2.5612365,,,,,,,,,,,,"{""convenience""}",independent,,,,,,,,,,,pending,standard,OpenStreetMap,2026-04-19,2026-04-19 07:40:05
node/13470244988,Supermarket Store,Food & Produce,food_produce,food-and-produce,"1 Marsh Lane, BS5 9SB",,,supermarket-store,51.4546487,-2.5603014,,,,,,,,,,,,"{""convenience""}",independent,,,,,,,,,,,pending,standard,OpenStreetMap,2026-04-19,2026-04-19 07:40:05
node/13456599887,Pats News & Booze,Food & Produce,food_produce,food-and-produce,"104-106 Church Road, Bristol, BS5 9LE",bristol,redfield,pats-news-booze,51.4586222,-2.5576466,,,,,,,,,,,,"{""convenience""}",independent,,,,,,,,,,,pending,standard,OpenStreetMap,2026-04-19,2026-04-19 07:40:05
node/13456599894,Lili Mini Market,Food & Produce,food_produce,food-and-produce,,,,lili-mini-market,51.458337,-2.5588974,,,,Mo-Su 08:00-24:00,,,,,,,,"{""convenience""}",independent,,,,,,,,,,,pending,standard,OpenStreetMap,2026-04-19,2026-04-19 07:40:05
node/4053743567,Food Plus,Food & Produce,food_produce,food-and-produce,"176 Church Road, Bristol, BS5 9HX",bristol,redfield,food-plus,51.4594894,-2.5520939,,,,,,,,,,,,"{""convenience""}",independent,,,,,,,,,,,pending,standard,OpenStreetMap,2026-04-19,2026-04-19 07:40:05
node/13456599765,Bristol Loaf,Food & Produce,food_produce,food-and-produce,"211-213 Church Road, BS5 9HF",,redfield,bristol-loaf,51.4593362,-2.5548107,,,,,,,,,,,,"{""bakery""}",independent,,,,,,,,,,,pending,standard,OpenStreetMap,2026-04-19,2026-04-19 07:40:05
node/13456599781,Southville Deli,Food & Produce,food_produce,food-and-produce,"259-261 Church Road, Bristol, BS5 9HT",bristol,redfield,southville-deli,51.4596111,-2.5528828,+44 117 966 4507,https://www.southvilledeli.com/,,Mo-Fr 08:30-18:30; Sa 08:30-18:00; Su 10:00-17:00; PH off,,,,,,,,"{""deli""}",independent,,,,,,,,,,,pending,standard,OpenStreetMap,2026-04-19,2026-04-19 07:40:05
node/13456599843,Mini Mart,Food & Produce,food_produce,food-and-produce,"156 Church Road, BS5 9HX",,redfield,mini-mart,51.4594325,-2.5530051,,,,Mo-Su 08:00-23:00,,,,,,,,"{""convenience""}",independent,,,,,,,,,,,pending,standard,OpenStreetMap,2026-04-19,2026-04-19 07:40:05
node/13456599855,The Faraway Tree,Food & Produce,food_produce,food-and-produce,"136 Church Road, Bristol, BS5 9HH",bristol,redfield,the-faraway-tree,51.4591695,-2.554806,,,,,,,,,,,,"{""restaurant""}",independent,,,,,,,,,,,pending,standard,OpenStreetMap,2026-04-19,2026-04-19 07:40:05
node/13456599859,preserve,Food & Produce,food_produce,food-and-produce,"132 Church Road, Bristol, BS5 9HH",bristol,,preserve,51.4590523,-2.555363,,https://www.preservefoods.co.uk/,,Mo-Fr 09:30-18:00; Sa 09:00-17:30; Su 11:00-16:00,,,,,,,,"{""convenience""}",independent,,,,,,,,,,,pending,standard,OpenStreetMap,2026-04-19,2026-04-19 07:40:05
node/13458009572,Food 4 U,Food & Produce,food_produce,food-and-produce,"200 Church Road, Bristol, BS5 8AD",bristol,saint-george,food-4-u,51.459544,-2.5503892,,,,Mo-Sa 09:00-21:00; Su 10:00-20:00,,,,,,,,"{""deli""}",independent,,,,,,,,,,,pending,standard,OpenStreetMap,2026-04-19,2026-04-19 07:40:05
node/13021696987,Costcutter Bristol,Food & Produce,food_produce,food-and-produce,"345-347 Church Road, Bristol, BS5 8AA",bristol,saint-george,costcutter-bristol,51.4596216,-2.5479927,,,,Mo-Su 07:00-22:00,,,,,,,,"{""supermarket""}",independent,,,,,,,,,,,pending,standard,OpenStreetMap,2026-04-19,2026-04-19 07:40:05
node/13458009548,Karpaty Market,Food & Produce,food_produce,food-and-produce,"284-286 Church Road, Bristol, BS5 8AH",bristol,saint-george,karpaty-market,51.4597453,-2.5465342,,,,,,,,,,,,"{""convenience""}",independent,,,,,,,,,,,pending,standard,OpenStreetMap,2026-04-19,2026-04-19 07:40:05
node/13458009564,Siam Smile,Food & Produce,food_produce,food-and-produce,"325 Church Road, Bristol, BS5 8AA",bristol,saint-george,siam-smile,51.4595488,-2.5488487,,,,,,,,,,,,"{""restaurant"",""thai""}",independent,,,,,,,,,,,pending,standard,OpenStreetMap,2026-04-19,2026-04-19 07:40:05
node/8035495290,The Public Market,Food & Produce,food_produce,food-and-produce,"Mivart Street, Bristol, BS5 6JF",bristol,easton,the-public-market,51.4683529,-2.5625658,+441179 870 698,https://www.thepublicmarket.co.uk/pages/our-shops,,"Mo-Th 08:00-19:00; Fr,Sa 08:00-20:00; Su 09:00-18:00",,,,,,,,"{""supermarket""}",independent,,,,,,,,,,,pending,standard,OpenStreetMap,2026-04-19,2026-04-19 07:40:05
node/13669765801,Karwan Super Store,Food & Produce,food_produce,food-and-produce,,,,karwan-super-store,51.4651037,-2.563688,,,,24/7,,,,,,,,"{""convenience""}",independent,,,,,,,,,,,pending,standard,OpenStreetMap,2026-04-19,2026-04-19 07:40:05
node/12763150946,Matter Wholefoods,Food & Produce,food_produce,food-and-produce,"1 Greenbank Road, Bristol, BS5 6EZ",bristol,easton,matter-wholefoods,51.4678981,-2.5610059,,,,"Mo-Th 08:00-20:00, Fr-Sa 08:00-18:00, Su 09:00-18:00",,,,,,,,"{""greengrocer""}",independent,,,,,,,,,,,pending,standard,OpenStreetMap,2026-04-19,2026-04-19 07:40:05
node/7883586588,Maid Marion Convenience Store,Food & Produce,food_produce,food-and-produce,"64 Clouds Hill Road, Bristol, BS5 7LF",bristol,saint-george,maid-marion-convenience-store,51.4611055,-2.5390861,,https://www.premier-stores.co.uk/our-stores/maid-marion-convenience-store,,,,,,,,,,"{""convenience""}",independent,,,,,,,,,,,pending,standard,OpenStreetMap,2026-04-19,2026-04-19 07:40:05
node/9274827973,KSK News,Food & Produce,food_produce,food-and-produce,"Hillside Road, Bristol, BS5 7PU",bristol,,ksk-news,51.459194,-2.523735,,https://www.premier-stores.co.uk/our-stores/k-s-k-news,,,,,,,,,,"{""convenience""}",independent,,,,,,,,,,,pending,standard,OpenStreetMap,2026-04-19,2026-04-19 07:40:05
node/9274827974,Everest Spice,Food & Produce,food_produce,food-and-produce,"227 Hillside Road, Bristol, BS5 7PU",bristol,,everest-spice,51.45921,-2.5236486,+44 117 960 9948,https://everestspicebristol.co.uk/,enquiry@everestspicebristol.co.uk,Tu-Su 17:00-22:00,,,,,,,,"{""restaurant"",""indian"",""nepalese""}",independent,,,,,,,,,,,pending,standard,OpenStreetMap,2026-04-19,2026-04-19 07:40:05
node/8500118118,Bakers Corner,Food & Produce,food_produce,food-and-produce,265 Two Mile Hill Road,,,bakers-corner,51.4630314,-2.5171199,,,,,,,,,,,,"{""bakery""}",independent,,,,,,,,,,,pending,standard,OpenStreetMap,2026-04-19,2026-04-19 07:40:05
node/1043480520,International Food Centre,Food & Produce,food_produce,food-and-produce,"585-587 Fishponds Road, Bristol, BS16 3AA",bristol,fishponds,international-food-centre,51.4772335,-2.5372631,,,,,,,,,,,,"{""supermarket""}",independent,,,,,,,,,,,pending,standard,OpenStreetMap,2026-04-19,2026-04-19 07:40:05
node/4426498389,The Blaise Restaurant,Food & Produce,food_produce,food-and-produce,,,,the-blaise-restaurant,51.5075473,-2.6314611,,,,,,,,,,,,"{""restaurant""}",independent,,,,,,,,,,,pending,standard,OpenStreetMap,2026-04-19,2026-04-19 07:40:05
node/8499981408,Maxim European Foods,Food & Produce,food_produce,food-and-produce,313 Two Mile Hill Road,,,maxim-european-foods,51.463317,-2.515293,,,,,,,,,,,,"{""convenience""}",independent,,,,,,,,,,,pending,standard,OpenStreetMap,2026-04-19,2026-04-19 07:40:05
way/279668322,Dixon Convenience Store,Food & Produce,food_produce,food-and-produce,"170-172 King's Head Lane, Bristol, BS13 7BW, GB",bristol,bedminster-down,dixon-convenience-store,51.421317,-2.6279723,,,,Mo-Su 06:00-22:00,,,,,,,,"{""convenience""}",independent,,,,,,,,,,,pending,standard,OpenStreetMap,2026-04-19,2026-04-19 07:40:05
way/402545056,Parsons,Food & Produce,food_produce,food-and-produce,"105 South Liberty Lane, Bristol, BS3 2SZ",bristol,ashton-vale,parsons,51.4299494,-2.621363,,,,,,,,,,,,"{""bakery""}",independent,,,,,,,,,,,pending,standard,OpenStreetMap,2026-04-19,2026-04-19 07:40:05
way/378764302,Ashton News,Food & Produce,food_produce,food-and-produce,"174-176 Ashton Drive, Bristol, BS3 2PX",bristol,ashton-vale,ashton-news,51.4324457,-2.62731,,,,,,,,,,,,"{""convenience""}",independent,,,,,,,,,,,pending,standard,OpenStreetMap,2026-04-19,2026-04-19 07:40:05
way/267158907,Ali Mahal,Food & Produce,food_produce,food-and-produce,"9-10 The Parade, Bristol, BS11 9TS",bristol,shirehampton,ali-mahal,51.4881336,-2.6744144,,,,,,,,,,,,"{""restaurant"",""indian""}",independent,,,,,,,,,,,pending,standard,OpenStreetMap,2026-04-19,2026-04-19 07:40:05
way/356857768,Nibley Road Convenience Store,Food & Produce,food_produce,food-and-produce,"134 Nibley Road, Bristol, BS11 9XN",bristol,,nibley-road-convenience-store,51.4832579,-2.6750019,,https://www.premier-stores.co.uk/our-stores/nibley-road-convenience-store,,,,,,,,,,"{""convenience""}",independent,,,,,,,,,,,pending,standard,OpenStreetMap,2026-04-19,2026-04-19 07:40:05
way/200513603,Nisbets,Food & Produce,food_produce,food-and-produce,Saint Brendan's Warehouse,,,nisbets,51.5008268,-2.6943054,,,,,,,,,,,,"{""kitchen""}",independent,,,,,,,,,,,pending,standard,OpenStreetMap,2026-04-19,2026-04-19 07:40:05
way/372111932,Parsons,Food & Produce,food_produce,food-and-produce,"203 Avonmouth Road, Bristol, BS11 9EG",bristol,avonmouth,parsons,51.499185,-2.6956493,,,,,,,,,,,,"{""bakery""}",independent,,,,,,,,,,,pending,standard,OpenStreetMap,2026-04-19,2026-04-19 07:40:05
way/372111939,Co-op Food,Food & Produce,food_produce,food-and-produce,"193-195 Avonmouth Road, Bristol, BS11 9EG",bristol,avonmouth,co-op-food,51.4990976,-2.6953126,,https://www.coop.co.uk/store-finder/BS11-9EG/193-195-avonmouth-road,,Mo-Su 06:00-23:00,,,,,,,,"{""supermarket""}",chain,,,,,,,,,,,pending,low,OpenStreetMap,2026-04-19,2026-04-19 07:40:05
way/372131572,Avonmouth Convenience Store,Food & Produce,food_produce,food-and-produce,"Avonmouth Road, Bristol, BS11 9LP",bristol,,avonmouth-convenience-store,51.4991025,-2.6937566,,https://www.premier-stores.co.uk/our-stores/avonmouth-convenience-store,,,,,,,,,,"{""convenience""}",independent,,,,,,,,,,,pending,standard,OpenStreetMap,2026-04-19,2026-04-19 07:40:05
way/106545886,Howdens Joinery,Food & Produce,food_produce,food-and-produce,"Avonbridge Trading Estate Atlantic Road, Bristol, BS11 9QD",bristol,,howdens-joinery,51.4977078,-2.687915,,https://www.howdens.com/find-a-depot/avonmouth,,,,,,,,,,"{""kitchen""}",independent,,,,,,,,,,,pending,standard,OpenStreetMap,2026-04-19,2026-04-19 07:40:05
way/266446743,Sweet Tooth Delights,Food & Produce,food_produce,food-and-produce,"61 Pembroke Road, Bristol, BS11 9SA",bristol,shirehampton,sweet-tooth-delights,51.489317,-2.6785103,,,,,,,,,,,,"{""confectionery""}",independent,,,,,,,,,,,pending,standard,OpenStreetMap,2026-04-19,2026-04-19 07:40:05
way/266446925,Asda Express,Food & Produce,food_produce,food-and-produce,"High Street, Bristol, BS11 0DE",bristol,shirehampton,asda-express,51.4896143,-2.6781649,,https://storelocator.asda.com/south-west/bristol/high-street,,Mo-Su 06:00-23:00,,,,,,,,"{""convenience""}",chain,,,,,,,,,,,pending,low,OpenStreetMap,2026-04-19,2026-04-19 07:40:05
way/266448874,High Street Market,Food & Produce,food_produce,food-and-produce,"60 High Street, Bristol, BS11 0DJ",bristol,,high-street-market,51.4898518,-2.6772586,,,,,,,,,,,,"{""convenience""}",independent,,,,,,,,,,,pending,standard,OpenStreetMap,2026-04-19,2026-04-19 07:40:05
way/267156761,Heron Foods,Food & Produce,food_produce,food-and-produce,"36 High Street, Bristol, BS11 0DJ",bristol,shirehampton,heron-foods,51.4896157,-2.6762157,,https://heronfoods.com/store/shirehampton/,,Mo-Sa 08:00-20:00; Su 10:00-16:00,,,,,,,,"{""supermarket""}",independent,,,,,,,,,,,pending,standard,OpenStreetMap,2026-04-19,2026-04-19 07:40:05
way/267158922,Redland Bakery,Food & Produce,food_produce,food-and-produce,"7 High Street, Bristol, BS11 0DT",bristol,shirehampton,redland-bakery,51.4886706,-2.67474,,,,,,,,,,,,"{""bakery""}",independent,,,,,,,,,,,pending,standard,OpenStreetMap,2026-04-19,2026-04-19 07:40:05
way/267160042,Food Plus,Food & Produce,food_produce,food-and-produce,"15 High Street, Bristol, BS11 0DT",bristol,shirehampton,food-plus,51.4888182,-2.6750483,,,,,,,,,,,,"{""convenience""}",independent,,,,,,,,,,,pending,standard,OpenStreetMap,2026-04-19,2026-04-19 07:40:05
way/267305048,Shirehampton Co-op,Food & Produce,food_produce,food-and-produce,"45-49 High Street, Bristol, BS11 0DW",bristol,shirehampton,shirehampton-co-op,51.4893804,-2.6773431,,,,,,,,,,,,"{""supermarket""}",chain,,,,,,,,,,,pending,low,OpenStreetMap,2026-04-19,2026-04-19 07:40:05
way/569454527,Nisa Express,Food & Produce,food_produce,food-and-produce,"Kings Weston Avenue, Bristol, BS11 0AJ",bristol,,nisa-express,51.4947688,-2.6770311,,https://www.nisalocally.co.uk/stores/city-of-bristol/bristol/kingsweston-service-st,,,,,,,,,,"{""convenience""}",independent,,,,,,,,,,,pending,standard,OpenStreetMap,2026-04-19,2026-04-19 07:40:05
way/666625485,Shirehampton International Store,Food & Produce,food_produce,food-and-produce,"27a High Street, Bristol, BS11 0DX",bristol,shirehampton,shirehampton-international-store,51.4890271,-2.6755213,,,,,,,,,,,,"{""convenience""}",independent,,,,,,,,,,,pending,standard,OpenStreetMap,2026-04-19,2026-04-19 07:40:05
way/679140814,Wood Family Butchers,Food & Produce,food_produce,food-and-produce,"24 High Street, Bristol, BS11 0DL",bristol,shirehampton,wood-family-butchers,51.4893381,-2.6758401,,,,,,,,,,,,"{""butcher""}",independent,,,,,,,,,,,pending,standard,OpenStreetMap,2026-04-19,2026-04-19 07:40:05
way/273385294,Fryers Convenience Store,Food & Produce,food_produce,food-and-produce,"Lower High Street, Bristol, BS11 0AW",bristol,,fryers-convenience-store,51.4950951,-2.6835993,,,,,,,,,,,,"{""convenience""}",independent,,,,,,,,,,,pending,standard,OpenStreetMap,2026-04-19,2026-04-19 07:40:05
way/328876597,New Emperor Court,Food & Produce,food_produce,food-and-produce,"26 Portland Street, Bristol, BS8 4JB",bristol,clifton,new-emperor-court,51.4556417,-2.6217083,+44 117 9731522,http://www.newemperorcourtrestaurant.co.uk/,,,,,,,,,,"{""restaurant"",""chinese""}",independent,,,,,,,,,,,pending,standard,OpenStreetMap,2026-04-19,2026-04-19 07:40:05
way/277928417,Côte Brasserie,Food & Produce,food_produce,food-and-produce,"27 The Mall, Bristol, BS8 4JF",bristol,clifton,cte-brasserie,51.4560283,-2.6217872,+44 117 970 6779,,bristol@cote-restaurants.co.uk,,,,,,,,,"{""restaurant"",""french""}",independent,,,,,,,,,,,pending,standard,OpenStreetMap,2026-04-19,2026-04-19 07:40:05
way/643097994,Milk Bun,Food & Produce,food_produce,food-and-produce,"25 The Mall, Bristol, BS8 4JG",bristol,clifton,milk-bun,51.4557874,-2.6217279,,,,,,,,,,,,"{""restaurant""}",independent,,,,,,,Q26498218,,,,pending,standard,OpenStreetMap,2026-04-19,2026-04-19 07:40:05
way/261967439,Londis,Food & Produce,food_produce,food-and-produce,"160 Shirehampton Road, Bristol, BS9 2EB",bristol,,londis,51.4885444,-2.649,,,,Mo-Su 07:00-21:00,,,,,,,,"{""convenience""}",independent,,,,,,,,,,,pending,standard,OpenStreetMap,2026-04-19,2026-04-19 07:40:05
way/279899302,Costcutter,Food & Produce,food_produce,food-and-produce,"32-34 Ridingleaze, Bristol, BS11 0QE",bristol,lawrence-weston,costcutter,51.5013562,-2.6586958,,https://store-locator.costcutter.co.uk/costcutter-a6722eafb245,,,,,,,,,,"{""convenience""}",independent,,,,,,,,,,,pending,standard,OpenStreetMap,2026-04-19,2026-04-19 07:40:05
way/649722368,Dingle News & Convenience Store,Food & Produce,food_produce,food-and-produce,"42 Westbury Lane, Bristol, BS9 2PP",bristol,coombe-dingle,dingle-news-convenience-store,51.4938429,-2.6476961,,https://www.premier-stores.co.uk/our-stores/dingle-news-conv-store,,,,,,,,,,"{""convenience""}",independent,,,,,,,,,,,pending,standard,OpenStreetMap,2026-04-19,2026-04-19 07:40:05
way/233184933,Welcome Stoke Bishop,Food & Produce,food_produce,food-and-produce,"5 Druid Hill, Bristol, BS9 1EW",bristol,stoke-bishop,welcome-stoke-bishop,51.4811533,-2.6347204,,,,,,,,,,,,"{""supermarket""}",independent,,,,,,,,,,,pending,standard,OpenStreetMap,2026-04-19,2026-04-19 07:40:05
way/233184938,ciao,Food & Produce,food_produce,food-and-produce,"1 Druid Hill, Bristol, BS9 1EW",bristol,stoke-bishop,ciao,51.4810795,-2.6348857,,,,"Mo-Sa 11:00-14:30,17:00-22:30",,,,,,,,"{""restaurant"",""italian""}",independent,,,,,,,,,,,pending,standard,OpenStreetMap,2026-04-19,2026-04-19 07:40:05
way/233184931,Bengal Raj,Food & Produce,food_produce,food-and-produce,"9 Druid Hill, Bristol, BS9 1EW",bristol,stoke-bishop,bengal-raj,51.4812261,-2.6345576,,,,"Su-Th 18:00-23:00; Fr,Sa 17:30-23:00",,,,,,,,"{""restaurant"",""indian""}",independent,,,,,,,,,,,pending,standard,OpenStreetMap,2026-04-19,2026-04-19 07:40:05
way/172715330,Stoke Bishop's Co-op,Food & Produce,food_produce,food-and-produce,"55-57 Shirehampton Road, Bristol, BS9 2DW",bristol,sea-mills,stoke-bishops-co-op,51.4860037,-2.6413898,,https://www.coop.co.uk/store-finder/BS9-2DW/55-57-shirehampton-road,,"PH,Mo-Su 06:00-23:00",,,,,,,,"{""supermarket""}",chain,,,,,,,,,,,pending,low,OpenStreetMap,2026-04-19,2026-04-19 07:40:05
way/172715335,The Hideaway,Food & Produce,food_produce,food-and-produce,"63 Shirehampton Road, Bristol, BS9 2DW",bristol,stoke-bishop,the-hideaway,51.4861624,-2.641756,,,,Mo-Sa 09:00-16:00; Su 10:00-15:00,,,,,,,,"{""restaurant""}",independent,,,,,,,,,,,pending,standard,OpenStreetMap,2026-04-19,2026-04-19 07:40:05
way/261967438,Sea Mills Convenience Store,Food & Produce,food_produce,food-and-produce,"125-127 Shirehampton Road, Bristol, BS9 2EA",bristol,sea-mills,sea-mills-convenience-store,51.4875504,-2.6472536,,https://www.premier-stores.co.uk/our-stores/sea-mills-convenience-store,,,,,,,,,,"{""convenience""}",independent,,,,,,,,,,,pending,standard,OpenStreetMap,2026-04-19,2026-04-19 07:40:05
way/171824445,Mr T.G Pullin's Bakery,Food & Produce,food_produce,food-and-produce,"7 Stoke Lane, Bristol, BS9 3RL",bristol,westbury-on-trym,mr-tg-pullins-bakery,51.4884022,-2.6254678,,,,,,,,,,,,"{""bakery""}",independent,,,,,,,,,,,pending,standard,OpenStreetMap,2026-04-19,2026-04-19 07:40:05
way/171824453,Lifestyle Express,Food & Produce,food_produce,food-and-produce,"133 Stoke Lane, Bristol, BS9 3RW",bristol,westbury-on-trym,lifestyle-express,51.4883918,-2.6247451,,,,Mo-Su 07:00-23:00,,,,,,,,"{""convenience""}",independent,,,,,,,,,,,pending,standard,OpenStreetMap,2026-04-19,2026-04-19 07:40:05
way/171824442,Stoke Lane's Co-op,Food & Produce,food_produce,food-and-produce,"141-145 Stoke Lane, Bristol, BS9 3RW",bristol,westbury-on-trym,stoke-lanes-co-op,51.4881125,-2.6248826,,https://www.coop.co.uk/store-finder/BS9-3RW/stoke-lane,,Mo-Sa 06:00-22:00; Su 10:00-16:00,,,,,,,,"{""supermarket""}",chain,,,,,,,,,,,pending,low,OpenStreetMap,2026-04-19,2026-04-19 07:40:05
way/275523234,Westbury Mini Market,Food & Produce,food_produce,food-and-produce,"32 Westbury Lane, Bristol, BS9 2PP",bristol,,westbury-mini-market,51.4938499,-2.6471604,,,,"Mo-Fr 07:00-22:00; Sa,Su 08:00-22:00",,,,,,,,"{""convenience""}",independent,,,,,,,,,,,pending,standard,OpenStreetMap,2026-04-19,2026-04-19 07:40:05
way/171824443,Al Fresco,Food & Produce,food_produce,food-and-produce,"124 Stoke Lane, Bristol, BS9 3RJ",bristol,westbury-on-trym,al-fresco,51.4889198,-2.6242421,,,,,,,,,,,,"{""restaurant""}",independent,,,,,,,,,,,pending,standard,OpenStreetMap,2026-04-19,2026-04-19 07:40:05
way/171824448,Zest,Food & Produce,food_produce,food-and-produce,"130 Stoke Lane, Bristol, BS9 3RJ",bristol,westbury-on-trym,zest,51.4888939,-2.6245472,,,,,,,,,,,,"{""deli""}",independent,,,,,,,,,,,pending,standard,OpenStreetMap,2026-04-19,2026-04-19 07:40:05
way/188083890,Morrisons,Food & Produce,food_produce,food-and-produce,"Hareclive Road, Bristol, BS13 0BE",bristol,,morrisons,51.4051542,-2.5997028,,https://my.morrisons.com/storefinder/143/bristol-hartcliffe,,,,,,,,,,"{""supermarket""}",chain,,,,,,,,,,,pending,low,OpenStreetMap,2026-04-19,2026-04-19 07:40:05
way/672259788,Iceland,Food & Produce,food_produce,food-and-produce,"1-3 Peterson Avenue, Bristol, BS13 0BE",bristol,,iceland,51.40509,-2.5980153,,https://www.iceland.co.uk/store-finder/store?StoreID=472&StoreName=HARTCLIFFE%20SYMES%20AVE,,,,,,,,,,"{""supermarket""}",chain,,,,,,,,,,,pending,low,OpenStreetMap,2026-04-19,2026-04-19 07:40:05
way/672259789,Greggs,Food & Produce,food_produce,food-and-produce,"8 Peterson Avenue, Bristol, BS13 0BE",bristol,hartcliffe,greggs,51.4047377,-2.598187,,,,,,,,,,,,"{""fast_food"",""bakery"",""sandwich"",""bakery""}",chain,,,,,,,,,,,pending,low,OpenStreetMap,2026-04-19,2026-04-19 07:40:05
way/672259790,Cliffe Market,Food & Produce,food_produce,food-and-produce,"7 Peterson Avenue, Bristol, BS13 0BE",bristol,hartcliffe,cliffe-market,51.4047965,-2.5981584,,,,,,,,,,,,"{""convenience""}",independent,,,,,,,,,,,pending,standard,OpenStreetMap,2026-04-19,2026-04-19 07:40:05
way/188084124,Lidl,Food & Produce,food_produce,food-and-produce,"59 Whitchurch Lane, Bristol, BS13 7TE",bristol,bishopsworth,lidl,51.4146068,-2.6114237,,https://www.lidl.co.uk/s/en-GB/store-finder/bristol/bishopsworth/whitchurch-lane-59/,,Mo-Sa 08:00-21:00; Su 10:00-16:00,,,,,,,,"{""supermarket""}",chain,,,,,,,,,,,pending,low,OpenStreetMap,2026-04-19,2026-04-19 07:40:05
way/628149329,Sweet Retreat,Food & Produce,food_produce,food-and-produce,"The Gatehouse Hareclive Road, Bristol, BS13 9JN",bristol,,sweet-retreat,51.412576,-2.6111356,,,,,,,,,,,,"{""confectionery""}",independent,,,,,,,,,,,pending,standard,OpenStreetMap,2026-04-19,2026-04-19 07:40:05
way/628405358,Howdens Joinery,Food & Produce,food_produce,food-and-produce,"Bristol, BS13 7TW",bristol,,howdens-joinery,51.4152138,-2.6105392,,https://www.howdens.com/find-a-depot/bishopsworth,,,,,,,,,,"{""kitchen""}",independent,,,,,,,,,,,pending,standard,OpenStreetMap,2026-04-19,2026-04-19 07:40:05
way/402537751,Dave John Butchers,Food & Produce,food_produce,food-and-produce,"2A Saint Peters Rise, Bristol, BS13 7LU",bristol,,dave-john-butchers,51.4183789,-2.6171308,,,,"Mo,We,Sa 07:15-13:00; Tu,Th,Fr 07:15-15:00",,,,,,,,"{""butcher""}",independent,,,,,,,,,,,pending,standard,OpenStreetMap,2026-04-19,2026-04-19 07:40:05
way/402537756,St Peters Rise Convenience Store,Food & Produce,food_produce,food-and-produce,"5A-6A Saint Peters Rise, Bristol, BS13 7LU",bristol,,st-peters-rise-convenience-store,51.4185186,-2.6166055,,,,,,,,,,,,"{""convenience""}",independent,,,,,,,,,,,pending,standard,OpenStreetMap,2026-04-19,2026-04-19 07:40:05
way/402535344,Costcutter,Food & Produce,food_produce,food-and-produce,"Saint Peters Rise, Bristol, BS13 7ND",bristol,,costcutter,51.4216425,-2.6089911,,,,,,,,,,,,"{""convenience""}",independent,,,,,,,,,,,pending,standard,OpenStreetMap,2026-04-19,2026-04-19 07:40:05
way/908848020,Aldi,Food & Produce,food_produce,food-and-produce,"Imperial Park Wills Way, Bristol, BS13 7TJ, GB",bristol,,aldi,51.4156215,-2.5964212,,https://www.aldi.co.uk/store-finder/l/bristol/imperial-park/k072,,Mo-Sa 08:00-22:00; Su 10:00-16:00; PH 08:00-20:00,,,,,,,,"{""supermarket""}",chain,,,,,,,,,,,pending,low,OpenStreetMap,2026-04-19,2026-04-19 07:40:05
way/402535358,Inns Court Stores,Food & Produce,food_produce,food-and-produce,"9-11 Marshall Walk, Bristol, BS4 1TR",bristol,,inns-court-stores,51.4203028,-2.5954687,+44 1179 661983,https://www.premier-stores.co.uk/our-stores/inns-court-stores,,,,,,,,,,"{""convenience""}",independent,,,,,,,,,,,pending,standard,OpenStreetMap,2026-04-19,2026-04-19 07:40:05
way/628660810,M&S Foodhall,Food & Produce,food_produce,food-and-produce,"Bristol, BS13 7TJ",bristol,,m-s-foodhall,51.4169793,-2.6013396,,https://www.marksandspencer.com/stores/bristol-imperial-park-simply-food-1324,,Mo-Sa 08:00-20:00; Su 10:00-16:00,,,,,,,,"{""supermarket""}",independent,,,,,,,,,,,pending,standard,OpenStreetMap,2026-04-19,2026-04-19 07:40:05
way/1223203156,Morrisons Daily,Food & Produce,food_produce,food-and-produce,"2,4 Teyfant Road, BS13 0RF",,,morrisons-daily,51.4049085,-2.5904776,+44 117 964 1845,https://my.morrisons.com/storefinder/61134/morrisons-daily-bristol-hartcliffe-teyfant,,Mo-Sa 06:00-22:00; Su 07:00-22:00,,,,,,,,"{""convenience""}",chain,,,,,,,,,,,pending,low,OpenStreetMap,2026-04-19,2026-04-19 07:40:05
way/188084450,Morrisons Daily,Food & Produce,food_produce,food-and-produce,"Roman Park Road, Bristol, BS4 1UJ",bristol,hengrove,morrisons-daily,51.4183458,-2.5891428,,https://my.morrisons.com/storefinder/34601/morrisons-daily-hengrove-way,,,,,,,,,,"{""convenience""}",chain,,,,,,,,,,,pending,low,OpenStreetMap,2026-04-19,2026-04-19 07:40:05
way/1198934251,Whitchurch Car Boot Sale,Food & Produce,food_produce,food-and-produce,,,,whitchurch-car-boot-sale,51.412211,-2.5793229,,,,,,,,,,,,"{""marketplace""}",independent,,,,,,,,,,,pending,standard,OpenStreetMap,2026-04-19,2026-04-19 07:40:05
way/188083555,Asda,Food & Produce,food_produce,food-and-produce,"Oatlands Avenue, Bristol, BS14 0ST",bristol,hengrove,asda,51.4140004,-2.5707704,,https://storelocator.asda.com/south-west/bristol/oatlands-avenue,,Mo-Fr 07:00-24:00; Sa 07:00-22:00; Su 10:00-16:00,,,,,,,,"{""supermarket""}",chain,https://www.facebook.com/asdabristolwhitchurch/,,asda,,,,,,,,pending,low,OpenStreetMap,2026-04-19,2026-04-19 07:40:05
way/5847388,Nisa Local,Food & Produce,food_produce,food-and-produce,"134 Walsh Avenue, Bristol, BS14 9SH",bristol,hengrove,nisa-local,51.4174988,-2.5707601,,,,"Mo-Su,PH 07:00-21:00",,,,,,,,"{""convenience""}",independent,,,,,,,,,,,pending,standard,OpenStreetMap,2026-04-19,2026-04-19 07:40:05
way/402539013,Chaitan Convenience Store,Food & Produce,food_produce,food-and-produce,"151 Bishopsworth Road, Bristol, BS13 7LG",bristol,bedminster-down,chaitan-convenience-store,51.4244219,-2.6144223,,,,,,,,,,,,"{""convenience""}",independent,,,,,,,,,,,pending,standard,OpenStreetMap,2026-04-19,2026-04-19 07:40:05
way/402539019,The Co-operative Food,Food & Produce,food_produce,food-and-produce,"105-107 Bishopsworth Road, Bristol, BS13 7JR",bristol,bedminster-down,the-co-operative-food,51.4253711,-2.613855,,https://www.coop.co.uk/store-finder/BS13-7JR/109-bishopsworth-road,,Mo-Su 06:00-22:00,,,,,,,,"{""convenience""}",chain,,,,,,,,,,,pending,low,OpenStreetMap,2026-04-19,2026-04-19 07:40:05
way/402541788,Margetts & Margetts,Food & Produce,food_produce,food-and-produce,"Bedminster Down Road, Bristol, BS13 7AF",bristol,,margetts-margetts,51.4290427,-2.6142698,,,,,,,,,,,,"{""kitchen""}",independent,,,,,,,,,,,pending,standard,OpenStreetMap,2026-04-19,2026-04-19 07:40:05
way/123271635,Sainsbury's,Food & Produce,food_produce,food-and-produce,"111 Winterstoke Road, Bristol, BS3 2NS",bristol,ashton-gate,sainsburys,51.4335304,-2.6196775,,https://stores.sainsburys.co.uk/0678/winterstoke-road,,Mo-Sa 07:00-22:00; Su 10:00-16:00,,,,,,,,"{""supermarket""}",chain,,,,,,,,,,,pending,low,OpenStreetMap,2026-04-19,2026-04-19 07:40:05
way/377204909,Sweet candy land,Food & Produce,food_produce,food-and-produce,"5 Ashton Drive, Bristol, BS3 2PN",bristol,,sweet-candy-land,51.4346321,-2.6189432,,,,,,,,,,,,"{""confectionery""}",independent,,,,,,,,,,,pending,standard,OpenStreetMap,2026-04-19,2026-04-19 07:40:05
way/578659296,Lifestyle Express,Food & Produce,food_produce,food-and-produce,,,,lifestyle-express,51.4336182,-2.6120611,,,,,,,,,,,,"{""convenience""}",independent,,,,,,,,,,,pending,standard,OpenStreetMap,2026-04-19,2026-04-19 07:40:05
way/402525810,Bedminster Road Convenience Store,Food & Produce,food_produce,food-and-produce,"80 Bedminster Road, Bristol, BS3 5NP",bristol,bedminster,bedminster-road-convenience-store,51.4336197,-2.6035365,,,,,,,,,,,,"{""convenience""}",independent,,,,,,,,,,,pending,standard,OpenStreetMap,2026-04-19,2026-04-19 07:40:05
way/402525845,Spar,Food & Produce,food_produce,food-and-produce,"82-84 Bedminster Road, Bristol, BS3 5NP",bristol,bedminster,spar,51.4335822,-2.6036795,,https://www.spar.co.uk/store-locator/awl27042-spar-bedminster,,,,,,,,,,"{""convenience""}",independent,,,,,,,,,,,pending,standard,OpenStreetMap,2026-04-19,2026-04-19 07:40:05
way/402525846,Nisa Local,Food & Produce,food_produce,food-and-produce,"72-74 Parson Street, Bristol, BS3 5QQ",bristol,bedminster,nisa-local,51.4312008,-2.6048875,,https://www.nisalocally.co.uk/stores/bedminster/bristol/72-74-parsons-st,,Mo-Su 00:00-00:00,,,,,,,,"{""convenience""}",independent,,,,,,,,,,,pending,standard,OpenStreetMap,2026-04-19,2026-04-19 07:40:05
way/402271426,Premier,Food & Produce,food_produce,food-and-produce,"30 Bedminster Road, Bristol, BS3 5PD",bristol,bedminster,premier,51.4355445,-2.6000642,,,,,,,,,,,,"{""convenience""}",independent,,,,,,,,,,,pending,standard,OpenStreetMap,2026-04-19,2026-04-19 07:40:05
way/378764317,The Food Warehouse,Food & Produce,food_produce,food-and-produce,"South Bristol Retail Park Winterstoke Road, Bristol, BS3 2LQ, GB",bristol,,the-food-warehouse,51.4384277,-2.6198757,,https://www.thefoodwarehouse.com/store-locator/ashton-gate-south-bristol,,Mo-Sa 09:00-20:00; Su 10:30-16:30,,,,,,,,"{""supermarket""}",independent,,,,,,,,,,,pending,standard,OpenStreetMap,2026-04-19,2026-04-19 07:40:05
way/288989620,Tesco Express,Food & Produce,food_produce,food-and-produce,"166-176 North Street, Bristol, BS3 1HA",bristol,bedminster,tesco-express,51.4403423,-2.6089217,,https://www.tesco.com/store-locator/bedminster/166-176-north-st,,Mo-Su 06:00-23:00,,,,,,,,"{""convenience""}",chain,,,,,,,,,,,pending,low,OpenStreetMap,2026-04-19,2026-04-19 07:40:05
way/288991435,Zara's Chocolates,Food & Produce,food_produce,food-and-produce,"200 North Street, Bristol, BS3 1JF",bristol,southville,zaras-chocolates,51.440555,-2.6101934,,,,,,,,,,,,"{""confectionery""}",independent,,,,,,,,,,,pending,standard,OpenStreetMap,2026-04-19,2026-04-19 07:40:05
way/288991441,The Co-operative Food,Food & Produce,food_produce,food-and-produce,"206-208 North Street, Bristol, BS3 1JF",bristol,bedminster,the-co-operative-food,51.4406575,-2.6104645,,https://stores.southern.coop/bristol/bristol/206-208-north-street.html,,Mo-Su 07:00-22:00,,,,,,,,"{""convenience""}",chain,,,,,,,,,,,pending,low,OpenStreetMap,2026-04-19,2026-04-19 07:40:05
way/304146051,International Sky Supermarket,Food & Produce,food_produce,food-and-produce,"264-266 North Street, Bristol, BS3 1JA",bristol,bedminster,international-sky-supermarket,51.4418557,-2.6125866,,,,,,,,,,,,"{""supermarket""}",independent,,,,,,,,,,,pending,standard,OpenStreetMap,2026-04-19,2026-04-19 07:40:05
way/304146053,Occasion Cakes,Food & Produce,food_produce,food-and-produce,"281 North Street, Bristol, BS3 1JP, GB",bristol,bedminster,occasion-cakes,51.4421561,-2.6139313,,,,,,,,,,,,"{""bakery""}",independent,,,,,,,,,,,pending,standard,OpenStreetMap,2026-04-19,2026-04-19 07:40:05
way/304146055,Soukitchen,Food & Produce,food_produce,food-and-produce,"277 North Street, Bristol, BS3 1JP, GB",bristol,bedminster,soukitchen,51.4420603,-2.6138275,,,,,,,,,,,,"{""restaurant""}",independent,,,,,,,,,,,pending,standard,OpenStreetMap,2026-04-19,2026-04-19 07:40:05
way/304146066,Southville Deli,Food & Produce,food_produce,food-and-produce,"260-262 North Street, Bristol, BS3 1JA",bristol,bedminster,southville-deli,51.4417819,-2.612483,,,,,,,,,,,,"{""deli""}",independent,,,,,,,,,,,pending,standard,OpenStreetMap,2026-04-19,2026-04-19 07:40:05
way/304146068,Parsons Bakery,Food & Produce,food_produce,food-and-produce,"252 North Street, Bristol, BS3 1JA",bristol,bedminster,parsons-bakery,51.4415727,-2.6123053,,,,,,,,,,,,"{""bakery""}",independent,,,,,,,,,,,pending,standard,OpenStreetMap,2026-04-19,2026-04-19 07:40:05
way/304148641,Rare,Food & Produce,food_produce,food-and-produce,"250 North Street, Bristol, BS3 1JD, GB",bristol,bedminster,rare,51.4415106,-2.612051,,,,,,,,,,,,"{""butcher""}",independent,,,,,,,,,,,pending,standard,OpenStreetMap,2026-04-19,2026-04-19 07:40:05
way/304280228,Pizzarova,Food & Produce,food_produce,food-and-produce,"237 North Street, Bristol, BS3 1JJ, GB",bristol,bedminster,pizzarova,51.4412524,-2.6124741,,,,,,,,,,,,"{""restaurant""}",independent,,,,,,,,,,,pending,standard,OpenStreetMap,2026-04-19,2026-04-19 07:40:05
way/304280235,Yafo Authentic Falafel,Food & Produce,food_produce,food-and-produce,"238 North Street, Bristol, BS3 1JD, GB",bristol,bedminster,yafo-authentic-falafel,51.4413052,-2.6117128,+44 117 379 0477,https://www.yafo.co.uk,info@yafo.co.uk,Mo-Th 08:00-21:00; Fr-Sa 09:00-22:00,,,,,,,,"{""restaurant"",""falafel""}",independent,,,,,,,,,,,pending,standard,OpenStreetMap,2026-04-19,2026-04-19 07:40:05
way/304280242,La Mediterranean,Food & Produce,food_produce,food-and-produce,"242 North Street, Bristol, BS3 1JD, GB",bristol,bedminster,la-mediterranean,51.4413613,-2.6118537,,,,,,,,,,,,"{""restaurant""}",independent,,,,,,,,,,,pending,standard,OpenStreetMap,2026-04-19,2026-04-19 07:40:05
way/304280247,Pizza Workshop,Food & Produce,food_produce,food-and-produce,"232 North Street, Bristol, BS3 1JD",bristol,bedminster,pizza-workshop,51.4410925,-2.6114758,,,,,,,,,,,,"{""restaurant"",""pizza""}",independent,,,,,,,,,,,pending,standard,OpenStreetMap,2026-04-19,2026-04-19 07:40:05
way/304280251,Uncle Wah - Dim Sum,Food & Produce,food_produce,food-and-produce,"240 North Street, Bristol, BS3 1JD, GB",bristol,bedminster,uncle-wah-dim-sum,51.4413153,-2.6118035,+44 7541 597859,https://www.unclewah.co.uk,,We-Sa 12:00-22:00. Su 12:00-21:00,,,,,,,,"{""restaurant"",""asian""}",independent,,,,,,,,,,,pending,standard,OpenStreetMap,2026-04-19,2026-04-19 07:40:05
way/304280255,The Malago,Food & Produce,food_produce,food-and-produce,"220 North Street, Bristol, BS3 1JD",bristol,bedminster,the-malago,51.440927,-2.6109579,,,,,,,,,,,,"{""restaurant""}",independent,,,,,,,,,,,pending,standard,OpenStreetMap,2026-04-19,2026-04-19 07:40:05
way/304288688,Ashton Fruit Shop,Food & Produce,food_produce,food-and-produce,"269 North Street, Bristol, BS3 1JN, GB",bristol,bedminster,ashton-fruit-shop,51.4418233,-2.6133624,,,,,,,,,,,,"{""greengrocer""}",independent,,,,,,,,,,,pending,standard,OpenStreetMap,2026-04-19,2026-04-19 07:40:05
way/304288690,Clarks Pies,Food & Produce,food_produce,food-and-produce,"259 North Street, Bristol, BS3 1JN, GB",bristol,bedminster,clarks-pies,51.4416444,-2.6130971,,,,,,,,,,,,"{""bakery""}",independent,,,,,,,,,,,pending,standard,OpenStreetMap,2026-04-19,2026-04-19 07:40:05
way/304288692,Fishminster,Food & Produce,food_produce,food-and-produce,"267 North Street, Bristol, BS3 1JN, GB",bristol,bedminster,fishminster,51.441788,-2.6132983,,,,,,,,,,,,"{""restaurant"",""fish_and_chips""}",independent,,,,,,,,,,,pending,standard,OpenStreetMap,2026-04-19,2026-04-19 07:40:05
way/304288698,Mangosteen North Street (Thai Tapas & Bar),Food & Produce,food_produce,food-and-produce,"273 North Street, Bristol, BS3 1JN, GB",bristol,bedminster,mangosteen-north-street-thai-tapas-bar,51.4419153,-2.613446,+44 117 985 3101,https://mangosteenbristol.co.uk,,"Tu-Sa 13:00-23:00, Su 13:00-22:00",,,,,,,,"{""restaurant"",""thai""}",independent,,,,,,,,,,,pending,standard,OpenStreetMap,2026-04-19,2026-04-19 07:40:05
way/304288703,Southville Deli,Food & Produce,food_produce,food-and-produce,"253 North Street, Bristol, BS3 1JN, GB",bristol,bedminster,southville-deli,51.4415667,-2.612894,,,,,,,,,,,,"{""deli""}",independent,,,,,,,,,,,pending,standard,OpenStreetMap,2026-04-19,2026-04-19 07:40:05
way/378579405,The Clove,Food & Produce,food_produce,food-and-produce,"5 Luckwell Road, Bristol, BS3 3EL",bristol,bedminster,the-clove,51.4401171,-2.6107799,,,,,,,,,,,,"{""restaurant"",""indian""}",independent,,,,,,,,,,,pending,standard,OpenStreetMap,2026-04-19,2026-04-19 07:40:05
way/378580792,Shorts News & Booze,Food & Produce,food_produce,food-and-produce,"135 Luckwell Road, Bristol, BS3 3ET",bristol,bedminster,shorts-news-booze,51.4367327,-2.612627,,,,,,,,,,,,"{""convenience""}",independent,,,,,,,,,,,pending,standard,OpenStreetMap,2026-04-19,2026-04-19 07:40:05
way/653726440,Bristol Fish LTD,Food & Produce,food_produce,food-and-produce,"252b North Street, Bristol, BS3 1JA",bristol,southvillebedminster,bristol-fish-ltd,51.4416413,-2.6121808,,,,,,,,,,,,"{""seafood""}",independent,,,,,,,,,,,pending,standard,OpenStreetMap,2026-04-19,2026-04-19 07:40:05
way/224685246,Chef's Table,Food & Produce,food_produce,food-and-produce,"1a Avon Crescent, Bristol, BS1 6XQ",bristol,hotwells,chefs-table,51.4472272,-2.6188031,,,,,,,,,,,,"{""restaurant""}",independent,,,,,,,,,,,pending,standard,OpenStreetMap,2026-04-19,2026-04-19 07:40:05
way/304146050,Mark's Bread,Food & Produce,food_produce,food-and-produce,"North Street, Bristol, BS3 1JP, GB",bristol,bedminster,marks-bread,51.442748,-2.6155009,,,,,,,,,,,,"{""bakery""}",independent,,,,,,,,,,,pending,standard,OpenStreetMap,2026-04-19,2026-04-19 07:40:05
way/377184281,Ali's curry place,Food & Produce,food_produce,food-and-produce,"10 Ashton Road, Bristol, BS3 2EA, GB",bristol,ashton-gate,alis-curry-place,51.4426343,-2.6174547,,,,,,,,,,,,"{""restaurant"",""indian""}",independent,,,,,,,,,,,pending,standard,OpenStreetMap,2026-04-19,2026-04-19 07:40:05
way/463057273,Noah's,Food & Produce,food_produce,food-and-produce,"1 Brunel Lock Road, Bristol, BS1 6XS",bristol,hotwells,noahs,51.4474078,-2.6208921,,https://www.noahsbristol.co.uk/,,,,,,,,,,"{""restaurant"",""fish_and_chips""}",independent,,noahsbristol_,,,,,,,,,pending,standard,OpenStreetMap,2026-04-19,2026-04-19 07:40:05
way/463650593,Coronation Road Convenience Store,Food & Produce,food_produce,food-and-produce,"250-251 Coronation Road, Bristol, BS3 1RL",bristol,southville,coronation-road-convenience-store,51.444704,-2.6158056,,,,,,,,,,,,"{""convenience""}",independent,,,,,,,,,,,pending,standard,OpenStreetMap,2026-04-19,2026-04-19 07:40:05
way/465309429,El Rincon,Food & Produce,food_produce,food-and-produce,"298 North Street, Bristol, BS3 1JU, GB",bristol,bedminster,el-rincon,51.4431814,-2.6162962,,,,,,,,,,,,"{""restaurant""}",independent,,,,,,,,,,,pending,standard,OpenStreetMap,2026-04-19,2026-04-19 07:40:05
way/32357395,Aldi,Food & Produce,food_produce,food-and-produce,"North Street, Bristol, BS3 1JA, GB",bristol,bedminster,aldi,51.4429225,-2.614135,,https://www.aldi.co.uk/store-finder/l/bristol/north-street/k013,,Mo-Sa 08:00-22:00; Su 10:00-16:00,,,,,,,,"{""supermarket""}",chain,,,,,,,,,,,pending,low,OpenStreetMap,2026-04-19,2026-04-19 07:40:05
way/126358469,Morrisons Daily,Food & Produce,food_produce,food-and-produce,"1 Mardyke Ferry Road, Bristol, BS1 6TT",bristol,hotwells,morrisons-daily,51.4468251,-2.6117927,,https://my.morrisons.com/storefinder/65923/morrisons-daily-bristol-baltic-wharf,,,,,,,,,,"{""convenience""}",chain,,,,,,,,,,,pending,low,OpenStreetMap,2026-04-19,2026-04-19 07:40:05
way/378568951,Sonny Stores,Food & Produce,food_produce,food-and-produce,"47 Raleigh Road, Bristol, BS3 1QS",bristol,southville,sonny-stores,51.444162,-2.609897,,,,,,,,,,,,"{""restaurant""}",independent,,,,,,,,,,,pending,standard,OpenStreetMap,2026-04-19,2026-04-19 07:40:05
way/463637996,lifestyle express,Food & Produce,food_produce,food-and-produce,"Coronation Road, Bristol, BS3 1RN",bristol,southville,lifestyle-express,51.4456601,-2.6144621,,,,,,,,,,,,"{""convenience""}",independent,,,,,,,,,,,pending,standard,OpenStreetMap,2026-04-19,2026-04-19 07:40:05
way/769789622,Co-op Food,Food & Produce,food_produce,food-and-produce,"171-178 Coronation Road, Bristol, BS3 1RF",bristol,southville,co-op-food,51.4458192,-2.61041,,https://www.coop.co.uk/store-finder/BS3-1RF/171-179-coronation-road,,Mo-Su 07:30-22:00,,,,,,,,"{""convenience""}",chain,,,,,,,,,,,pending,low,OpenStreetMap,2026-04-19,2026-04-19 07:40:05
way/288988237,Avon Food & Wine,Food & Produce,food_produce,food-and-produce,"38 North Street, Bristol, BS3 1HW",bristol,bedminster,avon-food-wine,51.4412505,-2.60313,,,,,,,,,,,,"{""convenience""}",independent,,,,,,,,,,,pending,standard,OpenStreetMap,2026-04-19,2026-04-19 07:40:05
way/288988268,Made at Nest,Food & Produce,food_produce,food-and-produce,"North Street, Bristol, BS3 1HW",bristol,,made-at-nest,51.4413781,-2.6026323,,,,,,,,,,,,"{""restaurant""}",independent,,,,,,,,,,,pending,standard,OpenStreetMap,2026-04-19,2026-04-19 07:40:05
way/288988271,Zero Green,Food & Produce,food_produce,food-and-produce,"80 North Street, Bristol, BS3 1HJ",bristol,,zero-green,51.4407885,-2.6051255,,https://www.zerogreenbristol.co.uk/,,,,,,,,,,"{""convenience""}",independent,,,,,,,,,,,pending,standard,OpenStreetMap,2026-04-19,2026-04-19 07:40:05
way/363047204,North Street Cheese Company,Food & Produce,food_produce,food-and-produce,"55 North Street, Bristol, BS3 1EN",bristol,,north-street-cheese-company,51.4408289,-2.6038656,,,,,,,,,,,,"{""cheese""}",independent,,,,,,,,,,,pending,standard,OpenStreetMap,2026-04-19,2026-04-19 07:40:05
way/363047211,Dios Deli,Food & Produce,food_produce,food-and-produce,"71 North Street, Bristol, BS3 1ES",bristol,bedminster,dios-deli,51.4406251,-2.604627,,,,,,,,,,,,"{""deli""}",independent,,,,,,,,,,,pending,standard,OpenStreetMap,2026-04-19,2026-04-19 07:40:05
way/363047217,Hugo's,Food & Produce,food_produce,food-and-produce,"73 North Street, Bristol, BS3 1ES",bristol,,hugos,51.440619,-2.6046956,,,,,,,,,,,,"{""deli""}",independent,,,,,,,,,,,pending,standard,OpenStreetMap,2026-04-19,2026-04-19 07:40:05
way/377211975,Shop'n'Save Convenience Store,Food & Produce,food_produce,food-and-produce,"West Street, Bristol, BS3 3PN",bristol,,shopnsave-convenience-store,51.4362415,-2.6055485,,https://www.premier-stores.co.uk/our-stores/shop-n-save-convenience-store,,,,,,,,,,"{""convenience""}",independent,,,,,,,,,,,pending,standard,OpenStreetMap,2026-04-19,2026-04-19 07:40:05
way/377211980,Best Off Licence & Convenience Store,Food & Produce,food_produce,food-and-produce,"137-139 West Street, Bristol, BS3 3PD",bristol,bedminster,best-off-licence-convenience-store,51.4364092,-2.6053081,,,,,,,,,,,,"{""convenience""}",independent,,,,,,,,,,,pending,standard,OpenStreetMap,2026-04-19,2026-04-19 07:40:05
way/377211995,Thai Garden,Food & Produce,food_produce,food-and-produce,"100 West Street, Bristol, BS3 3LR",bristol,bedminster,thai-garden,51.4376112,-2.6041806,,,,,,,,,,,,"{""restaurant""}",independent,,,,,,,,,,,pending,standard,OpenStreetMap,2026-04-19,2026-04-19 07:40:05
way/378579401,Mezzaluna,Food & Produce,food_produce,food-and-produce,"81 West Street, Bristol, BS3 3NU",bristol,bedminster,mezzaluna,51.4380082,-2.6032092,,,,,,,,,,,,"{""restaurant""}",independent,,,,,,,,,,,pending,standard,OpenStreetMap,2026-04-19,2026-04-19 07:40:05
way/378579404,Tesco Express,Food & Produce,food_produce,food-and-produce,"79 West Street, Bristol, BS3 3NU",bristol,bedminster,tesco-express,51.4381473,-2.603072,,https://www.tesco.com/store-locator/bristol/1-w-st,,Mo-Su 06:00-23:00,,,,,,,,"{""convenience""}",chain,,,,,,,,,,,pending,low,OpenStreetMap,2026-04-19,2026-04-19 07:40:05
way/578252381,Cafe Spice,Food & Produce,food_produce,food-and-produce,"154 West Street, Bristol, BS3 3LY",bristol,bedminster,cafe-spice,51.4362932,-2.6061043,,,,,,,,,,,,"{""restaurant"",""indian""}",independent,,,,,,,,,,,pending,standard,OpenStreetMap,2026-04-19,2026-04-19 07:40:05
way/128069577,Lidl,Food & Produce,food_produce,food-and-produce,"Sheene Road, Bristol, BS3 4EG",bristol,bedminster,lidl,51.4381636,-2.6007554,,https://www.lidl.co.uk/s/en-GB/store-finder/bristol/bedminster/sheene-road/,,Mo-Sa 08:00-22:00; Su 10:00-16:00,,,,,,,,"{""supermarket""}",chain,,,,,,,,,,,pending,low,OpenStreetMap,2026-04-19,2026-04-19 07:40:05
way/288984334,Other,Food & Produce,food_produce,food-and-produce,"32 Cannon Street, Bristol, BS3 1BN",bristol,bedminster,other,51.4413802,-2.6011802,,,,,,,,,,,,"{""restaurant""}",independent,,,,,,,,,,,pending,standard,OpenStreetMap,2026-04-19,2026-04-19 07:40:05
way/288984343,Mr Blue,Food & Produce,food_produce,food-and-produce,42 Cannon Street,,,mr-blue,51.4415317,-2.6012651,,,,,,,,,,,,"{""convenience""}",independent,,,,,,,,,,,pending,standard,OpenStreetMap,2026-04-19,2026-04-19 07:40:05
way/288984351,Spice & Sizzle,Food & Produce,food_produce,food-and-produce,"7 Cannon Street, Bristol, BS3 1BH",bristol,bedminster,spice-sizzle,51.4409877,-2.6013475,,,,,,,,,,,,"{""restaurant"",""indian""}",independent,,,,,,,Q125920808,,,,pending,standard,OpenStreetMap,2026-04-19,2026-04-19 07:40:05
way/288984352,Food Plus,Food & Produce,food_produce,food-and-produce,"3-7 Cannon Street, Bristol, BS3 1BH",bristol,bedminster,food-plus,51.4408804,-2.6011916,,,,,,,,,,,,"{""deli""}",independent,,,,,,,,,,,pending,standard,OpenStreetMap,2026-04-19,2026-04-19 07:40:05
way/376590365,Preserve,Food & Produce,food_produce,food-and-produce,"72 East Street, Bristol, BS3 4EY",bristol,bedminster,preserve,51.4420574,-2.5972829,,https://preservefoods.co.uk/,,Mo-Fr 09:30-18:00; Sa 09:00-17:30; Su 11:00-16:00,,,,,,,,"{""deli""}",independent,,,,,,,,,,,pending,standard,OpenStreetMap,2026-04-19,2026-04-19 07:40:05
way/377388292,Stan Butt,Food & Produce,food_produce,food-and-produce,"137 East Street, Bristol, BS3 4EL",bristol,bedminster,stan-butt,51.4410069,-2.5993916,,,,,,,,,,,,"{""butcher""}",independent,,,,,,,,,,,pending,standard,OpenStreetMap,2026-04-19,2026-04-19 07:40:05
way/377388309,Viva La Mexicana,Food & Produce,food_produce,food-and-produce,"149 East Street, Bristol, BS3 4EJ",bristol,bedminster,viva-la-mexicana,51.4408441,-2.5999799,,,,,,,,,,,,"{""restaurant""}",independent,,,,,,,,,,,pending,standard,OpenStreetMap,2026-04-19,2026-04-19 07:40:05
way/377394474,Lucky Strike,Food & Produce,food_produce,food-and-produce,"61 East Street, Bristol, BS3 4HB",bristol,,lucky-strike,51.4419409,-2.5965424,,,,,,,,,,,,"{""restaurant"",""ramen""}",independent,,,,,,,,,,,pending,standard,OpenStreetMap,2026-04-19,2026-04-19 07:40:05
way/377394483,East Street Butcher,Food & Produce,food_produce,food-and-produce,"59 East Street, Bristol, BS3 4HB",bristol,bedminster,east-street-butcher,51.4419598,-2.5964924,,,,,,,,,,,,"{""butcher""}",independent,,,,,,,,,,,pending,standard,OpenStreetMap,2026-04-19,2026-04-19 07:40:05
way/377394495,Raff Minimarket,Food & Produce,food_produce,food-and-produce,"East Street, Bristol, BS3 4HB",bristol,,raff-minimarket,51.4419009,-2.5966497,,,,,,,,,,,,"{""convenience""}",independent,,,,,,,,,,,pending,standard,OpenStreetMap,2026-04-19,2026-04-19 07:40:05
way/377394497,East St Deli Co,Food & Produce,food_produce,food-and-produce,"Bristol, BS3 4HA",bristol,,east-st-deli-co,51.4415954,-2.5977742,,,,,,,,,,,,"{""deli""}",independent,,,,,,,,,,,pending,standard,OpenStreetMap,2026-04-19,2026-04-19 07:40:05
way/378030782,Bedminster Store,Food & Produce,food_produce,food-and-produce,"114-116 East Street, Bristol, BS3 4EY",bristol,,bedminster-store,51.4414393,-2.5985734,,,,,,,,,,,,"{""convenience""}",independent,,,,,,,,,,,pending,standard,OpenStreetMap,2026-04-19,2026-04-19 07:40:05
way/378030804,East Street Fruit Market,Food & Produce,food_produce,food-and-produce,"132 East Street, Bristol, BS3 4ET",bristol,bedminster,east-street-fruit-market,51.4412561,-2.5992687,,,,,,,,,,,,"{""greengrocer""}",independent,,,,,,,,,,,pending,standard,OpenStreetMap,2026-04-19,2026-04-19 07:40:05
way/378579397,Beverly's bakery,Food & Produce,food_produce,food-and-produce,"130 East Street, Bristol, BS3 4ET",bristol,bedminster,beverlys-bakery,51.4412781,-2.5991687,,,,,,,,,,,,"{""bakery""}",independent,,,,,,,,,,,pending,standard,OpenStreetMap,2026-04-19,2026-04-19 07:40:05
way/1274733431,D&C Thai Massage,Food & Produce,food_produce,food-and-produce,"63 East Street, Bristol, BS3 4HB",bristol,,d-c-thai-massage,51.4419295,-2.596598,,,,,,,,,,,,"{""greengrocer""}",independent,,,,,,,,,,,pending,standard,OpenStreetMap,2026-04-19,2026-04-19 07:40:05
way/125302531,Asda,Food & Produce,food_produce,food-and-produce,"East Street, Bristol, BS3 4JY",bristol,bedminster,asda,51.4438697,-2.5951641,,https://storelocator.asda.com/south-west/bristol/east-street,,Mo-Fr 06:00-24:00; Sa 06:00-21:00; Su 10:00-16:00,,,,,,,,"{""supermarket""}",chain,https://www.facebook.com/asdabedminster/,,asda,,,,,,,,pending,low,OpenStreetMap,2026-04-19,2026-04-19 07:40:05
way/288981083,Sunny's kitchen,Food & Produce,food_produce,food-and-produce,"33a East Street, Bristol, BS3 4HH",bristol,bedminster,sunnys-kitchen,51.4425926,-2.5952069,,,,,,,,,,,,"{""restaurant"",""indian""}",independent,,,,,,,,,,,pending,standard,OpenStreetMap,2026-04-19,2026-04-19 07:40:05
way/288981086,East Street Market,Food & Produce,food_produce,food-and-produce,"23-25 East Street, Bristol, BS3 4HH",bristol,bedminster,east-street-market,51.4425164,-2.5953005,,,,,,,,,,,,"{""convenience""}",independent,,,,,,,,,,,pending,standard,OpenStreetMap,2026-04-19,2026-04-19 07:40:05
way/288981092,Bombil,Food & Produce,food_produce,food-and-produce,,,,bombil,51.4426306,-2.5950933,+44 117 379 0747,https://www.bombilbristol.com/,info@bombilbristol.com,Tu-Th 17:00-23:30; Fr-Sa 12:00-00:00; Su 12:00-23:00,,,,,,,,"{""restaurant"",""indian""}",independent,,,,,,,,,,,pending,standard,OpenStreetMap,2026-04-19,2026-04-19 07:40:05
way/127045360,New Moon on the Quay,Food & Produce,food_produce,food-and-produce,"3 Cathedral Walk, Bristol, BS1 5JE",bristol,city-centre,new-moon-on-the-quay,51.4485873,-2.6037599,,https://newmoontapas.co.uk/onthequay,,,,,,,,,,"{""restaurant"",""tapas""}",independent,,,,,,,,,,,pending,standard,OpenStreetMap,2026-04-19,2026-04-19 07:40:05
way/128175967,The Olive Shed,Food & Produce,food_produce,food-and-produce,"Princes Wharf, Bristol, BS1 4RN",bristol,redcliffe,the-olive-shed,51.4470567,-2.6001039,+44 1179291960,https://www.theoliveshed.com/,,,,,,,,,,"{""restaurant""}",independent,,,,,,,,,,,pending,standard,OpenStreetMap,2026-04-19,2026-04-19 07:40:05
way/182262204,Bertha's Pizza,Food & Produce,food_produce,food-and-produce,"The Old Gaol Stables Cumberland Road, Bristol, BS1 6WW",bristol,,berthas-pizza,51.4463139,-2.599564,+441179290003,http://berthas.co.uk,hello@berthas.co.uk,"Tu-Th 18:00-21:00; Fr 12:00-14:30,18:00-22:00; Sa 12:00-22:00; Su 12:00-16:00",,,,,,,,"{""restaurant"",""pizza""}",independent,BerthasPizza,,berthaspizza,,,,,,,,pending,standard,OpenStreetMap,2026-04-19,2026-04-19 07:40:05
way/444204523,Better Food,Food & Produce,food_produce,food-and-produce,"Gaol Ferry Steps, Bristol, BS1 6WE",bristol,wapping-wharf,better-food,51.4463986,-2.5991593,,https://betterfood.co.uk/stores/,,Mo-Su 08:30-20:30,,,,,,,,"{""deli""}",independent,,,,,,,,,,,pending,standard,OpenStreetMap,2026-04-19,2026-04-19 07:40:05
way/444204525,Junction,Food & Produce,food_produce,food-and-produce,"Wapping Wharf Gaol Ferry Steps, Bristol, BS1 6WE",bristol,,junction,51.4469022,-2.5995099,+44 117 408 9100,https://www.bristolbeerfactory.co.uk/pages/junction,junction@bristolbeerfactory.co.uk,Mo-Su 11:30-23:00,,,,,,,,"{""restaurant""}",independent,,,,,,,,,,,pending,standard,OpenStreetMap,2026-04-19,2026-04-19 07:40:05
way/464811689,Box-E,Food & Produce,food_produce,food-and-produce,"Cargo 1 Gaol Ferry Steps, Bristol, BS1 6WP",bristol,wapping-wharf,box-e,51.4468863,-2.5990144,,https://www.boxebristol.com/,hello@boxebristol.com,,,,,,,,,"{""restaurant"",""regional""}",independent,,,,,,,,,,,pending,standard,OpenStreetMap,2026-04-19,2026-04-19 07:40:05
way/464811690,Bush,Food & Produce,food_produce,food-and-produce,Cargo 1 Gaol Ferry Steps,,wapping-wharf,bush,51.446851,-2.5990575,,,,,,,,,,,,"{""bakery""}",independent,,,,,,,,,,,pending,standard,OpenStreetMap,2026-04-19,2026-04-19 07:40:05
way/464811693,Squeezed,Food & Produce,food_produce,food-and-produce,"Cargo 1 Gaol Ferry Steps, Bristol, BS1 6WE",bristol,wapping-wharf,squeezed,51.4469639,-2.5991361,,https://www.bristolsqueezed.co.uk,bristollemonade@gmail.com,"We-Sa 12:00-15:00, 17:00-21:00; Su 12:00-17:00",,,,,,,,"{""restaurant"",""burger""}",independent,,,,,,,,,,,pending,standard,OpenStreetMap,2026-04-19,2026-04-19 07:40:05
way/464811695,Pigsty,Food & Produce,food_produce,food-and-produce,"Cargo 1 Gaol Ferry Steps, Bristol, BS1 6WE",bristol,hotwells,pigsty,51.447046,-2.5991627,,https://www.pigstyuk.com/,,,,,,,,,,"{""restaurant""}",independent,,,,,,,,,,,pending,standard,OpenStreetMap,2026-04-19,2026-04-19 07:40:05
way/464811696,Root,Food & Produce,food_produce,food-and-produce,"Cargo 1 Gaol Ferry Steps, Bristol, BS1 6WP",bristol,hotwells,root,51.4469688,-2.5990714,+44 117 930 0260,https://www.rootbristol.co.uk/,,"Mo-Tu 17:30-22:30; We-Sa 12:00-14:30,17:30-22:30; Su closed",,,,,,,,"{""restaurant"",""regional""}",independent,,,rootbristol,,,,,,,,pending,standard,OpenStreetMap,2026-04-19,2026-04-19 07:40:05
way/477592742,Calypso Kitchen,Food & Produce,food_produce,food-and-produce,"3 Gaol Ferry Steps, Bristol, BS1 6WE",bristol,,calypso-kitchen,51.4466548,-2.5994696,,,,"Mo-Fr 12:00-15:00,17:00-21:00; Sa,Su 12:00-21:00",,,,,,,,"{""restaurant""}",independent,,,,,,,,,,,pending,standard,OpenStreetMap,2026-04-19,2026-04-19 07:40:05
way/561883491,East Bristol bakery,Food & Produce,food_produce,food-and-produce,"Cargo Gaol Ferry Steps, Bristol, BS1 6WE",bristol,hotwells,east-bristol-bakery,51.4474043,-2.5980495,,,,"Mo-Fr 08:00-15:00; Sa,Su 09:30-16:00",,,,,,,,"{""bakery""}",independent,,,,,,,,,,,pending,standard,OpenStreetMap,2026-04-19,2026-04-19 07:40:05
way/561883492,Meatbox,Food & Produce,food_produce,food-and-produce,"Cargo 2 Museum Street, Bristol, BS1 6ZA",bristol,,meatbox,51.4474186,-2.5980073,,,,Tu-Fr 10:00-17:00; Sa 10:00-16:00; Su 10:00-15:00,,,,,,,,"{""butcher""}",independent,,,,,,,,,,,pending,standard,OpenStreetMap,2026-04-19,2026-04-19 07:40:05
way/561890015,Bandook,Food & Produce,food_produce,food-and-produce,Cargo2 Museum Street,,wapping-wharf,bandook,51.4473037,-2.598288,,,,,,,,,,,,"{""restaurant""}",independent,,,,,,,,,,,pending,standard,OpenStreetMap,2026-04-19,2026-04-19 07:40:05
way/561890016,The Athenian,Food & Produce,food_produce,food-and-produce,"Cargo2 Museum Street, Bristol, BS1 6WE",bristol,wapping-wharf,the-athenian,51.4472809,-2.5983546,,,,,,,,,,,,"{""restaurant"",""greek""}",independent,,,,,,,,,,,pending,standard,OpenStreetMap,2026-04-19,2026-04-19 07:40:05
way/561890017,Cargo Cantina,Food & Produce,food_produce,food-and-produce,"Cargo2 Museum Street, Bristol, BS1 6ZA",bristol,wapping-wharf,cargo-cantina,51.4472523,-2.598438,,https://cargocantina.co.uk/,,,,,,,,,,"{""restaurant"",""mexican""}",independent,,,,,,,,,,,pending,standard,OpenStreetMap,2026-04-19,2026-04-19 07:40:05
way/561890018,Lapin,Food & Produce,food_produce,food-and-produce,"Cargo2 Museum Street, Bristol, BS1 6ZA",bristol,wapping-wharf,lapin,51.4472181,-2.598538,,https://www.lapinbristol.co.uk,,,,,,,,,,"{""restaurant"",""european"",""french""}",independent,,,,,,,,,,,pending,standard,OpenStreetMap,2026-04-19,2026-04-19 07:40:05
way/561890019,Gambas (Private Dining),Food & Produce,food_produce,food-and-produce,"Cargo2 Museum Street, Bristol, BS1 6ZA",bristol,wapping-wharf,gambas-private-dining,51.4471781,-2.5986547,,,,,,,,,,,,"{""restaurant""}",independent,,,,,,,,,,,pending,standard,OpenStreetMap,2026-04-19,2026-04-19 07:40:05
way/561890020,Gambas,Food & Produce,food_produce,food-and-produce,"Cargo2 Museum Street, Bristol, BS1 6JL",bristol,redcliffe,gambas,51.4471325,-2.5987884,,,,,,,,,,,,"{""restaurant""}",independent,,,,,,,,,,,pending,standard,OpenStreetMap,2026-04-19,2026-04-19 07:40:05
way/561890022,Salt & Malt,Food & Produce,food_produce,food-and-produce,"Cargo2 Museum Street, Bristol, BS1 6ZA",bristol,wapping-wharf,salt-malt,51.4471772,-2.5988273,,,,,,,,,,,,"{""restaurant"",""fish_and_chips""}",independent,,,,,,,,,,,pending,standard,OpenStreetMap,2026-04-19,2026-04-19 07:40:05
way/561890025,Herbivore,Food & Produce,food_produce,food-and-produce,"Cargo2 Museum Street, Bristol, BS1 6ZA",bristol,wapping-wharf,herbivore,51.4472286,-2.5986774,,,,,,,,,,,,"{""deli""}",independent,,,,,,,,,,,pending,standard,OpenStreetMap,2026-04-19,2026-04-19 07:40:05
way/561890029,The Bristol Cheesemonger,Food & Produce,food_produce,food-and-produce,"Cargo2 Museum Street, Bristol, BS1 6ZA",bristol,wapping-wharf,the-bristol-cheesemonger,51.4472856,-2.5985107,,,,Tu-Sa 11:00-18:00; Su 11:00-16:00,,,,,,,,"{""deli""}",independent,,,,,,,,,,,pending,standard,OpenStreetMap,2026-04-19,2026-04-19 07:40:05
way/1291136139,Salt & Malt,Food & Produce,food_produce,food-and-produce,"Cargo2 Museum Street, Bristol, BS1 6ZA",bristol,wapping-wharf,salt-malt,51.4471241,-2.5989759,,,,,,,,,,,,"{""restaurant"",""fish_and_chips""}",independent,,,,,,,,,,,pending,standard,OpenStreetMap,2026-04-19,2026-04-19 07:40:05
way/1291136140,Clifton Seafood Company,Food & Produce,food_produce,food-and-produce,,,,clifton-seafood-company,51.4474342,-2.5978731,,,,,,,,,,,,"{""seafood""}",independent,,,,,,,,,,,pending,standard,OpenStreetMap,2026-04-19,2026-04-19 07:40:05
way/1343555516,Seven Lucky Gods,Food & Produce,food_produce,food-and-produce,"Cargo 2 Museum Street, Bristol, BS1 6WE",bristol,,seven-lucky-gods,51.4472982,-2.5980188,,,,,,,,,,,,"{""restaurant"",""japanese""}",independent,,,,,,,,,,,pending,standard,OpenStreetMap,2026-04-19,2026-04-19 07:40:05
way/402525826,Local Value,Food & Produce,food_produce,food-and-produce,"Leinster Avenue, Bristol, BS4 1NL",bristol,,local-value,51.4256113,-2.5930395,,,,,,,,,,,,"{""convenience""}",independent,,,,,,,,,,,pending,standard,OpenStreetMap,2026-04-19,2026-04-19 07:40:05
way/402525827,Londis,Food & Produce,food_produce,food-and-produce,"56 Leinster Avenue, Bristol, BS4 1NL",bristol,knowle,londis,51.4259772,-2.592182,,,,,,,,,,,,"{""supermarket""}",independent,,,,,,,,,,,pending,standard,OpenStreetMap,2026-04-19,2026-04-19 07:40:05
way/402525839,11 Eleven,Food & Produce,food_produce,food-and-produce,"Leinster Avenue, Bristol, BS4 1NL",bristol,,11-eleven,51.4253834,-2.5925075,,,,,,,,,,,,"{""convenience""}",independent,,,,,,,,,,,pending,standard,OpenStreetMap,2026-04-19,2026-04-19 07:40:05
way/402525842,Knowle mini market,Food & Produce,food_produce,food-and-produce,"Leinster Avenue, Bristol",bristol,,knowle-mini-market,51.4256921,-2.5926761,,,,,,,,,,,,"{""convenience""}",independent,,,,,,,,,,,pending,standard,OpenStreetMap,2026-04-19,2026-04-19 07:40:05
