osm_id,name,category,category_key,category_slug,address,city_slug,area_slug,business_slug,latitude,longitude,phone,website,email,opening_hours,google_maps_url,photo_url,image_url,google_summary,google_rating,google_review_count,google_place_id,tags,chain_flag,social_facebook,social_instagram,social_twitter,social_tiktok,social_linkedin,social_youtube,wikidata_id,fsa_rating,fsa_hygiene_score,fsa_establishment_id,status,ranking_tier,source,scrape_date,last_synced_at
node/827983667,Morrisons Daily,Food & Produce,food_produce,food-and-produce,"143-147 Four Acres, BS13 8RA, GB",,,morrisons-daily,51.4062987,-2.6266084,,https://my.morrisons.com/storefinder/61201/morrisons-daily-bristol-withywood-fouracres,,,,,,,,,,"{""convenience""}",chain,,,,,,,,,,,pending,low,OpenStreetMap,2026-04-19,2026-04-19 06:58:54
node/5084276701,Estate Stores,Food & Produce,food_produce,food-and-produce,,,,estate-stores,51.4156101,-2.6246489,,,,,,,,,,,,"{""convenience""}",independent,,,,,,,,,,,pending,standard,OpenStreetMap,2026-04-19,2026-04-19 06:58:54
node/10556681607,Yew Tree Farm Bristol,Food & Produce,food_produce,food-and-produce,"Bridgwater Road, Bristol, BS13 8AJ",bristol,,yew-tree-farm-bristol,51.4218834,-2.6342975,,,,,,,,,,,,"{""farm""}",independent,https://www.facebook.com/yewtreefarmandshop/,,,,,,,,,,pending,standard,OpenStreetMap,2026-04-19,2026-04-19 06:58:54
node/13119524598,Tesco Express,Food & Produce,food_produce,food-and-produce,"1-2 Shirehampton Road, Bristol, BS9 2DP",bristol,sea-mills,tesco-express,51.4862885,-2.641832,,https://www.tesco.com/store-locator/bristol/trymwood-parade,,Mo-Su 07:00-23:00,,,,,,,,"{""supermarket""}",chain,,,,,,,,,,,pending,low,OpenStreetMap,2026-04-19,2026-04-19 06:58:54
node/11466017653,Kwik Save,Food & Produce,food_produce,food-and-produce,"Queen's Road, Bristol",bristol,,kwik-save,51.4088478,-2.6213983,,,,,,,,,,,,"{""supermarket""}",independent,,,,,,,,,,,pending,standard,OpenStreetMap,2026-04-19,2026-04-19 06:58:54
node/11478973267,Londis,Food & Produce,food_produce,food-and-produce,"92 Queen's Road, Bristol",bristol,,londis,51.4090941,-2.6211467,,,,Mo-Su 05:30-23:00,,,,,,,,"{""convenience""}",independent,,,,,,,,,,,pending,standard,OpenStreetMap,2026-04-19,2026-04-19 06:58:54
node/11147892761,Morrisons Daily,Food & Produce,food_produce,food-and-produce,"532-536 Bishport Avenue, BS13 9LJ",,,morrisons-daily,51.4056311,-2.6093784,+44 117 964 1620,https://my.morrisons.com/storefinder/61159/morrisons-daily-bristol-hartcliffe-bishport,,Mo-Sa 06:00-22:00; Su 07:00-22:00,,,,,,,,"{""convenience""}",chain,,,,,,,,,,,pending,low,OpenStreetMap,2026-04-19,2026-04-19 06:58:54
node/11524269682,Morrisons Daily,Food & Produce,food_produce,food-and-produce,"141 Church Road, Bristol, BS13 8JZ",bristol,,morrisons-daily,51.4130502,-2.6201936,,,,,,,,,,,,"{""convenience""}",chain,,,,,,,,,,,pending,low,OpenStreetMap,2026-04-19,2026-04-19 06:58:54
node/11501273339,Belland's Drive Co-op,Food & Produce,food_produce,food-and-produce,,,,bellands-drive-co-op,51.4071167,-2.5770311,,https://www.coop.co.uk/store-finder/BS14-0EW/30-32-belland-drive,,Mo-Su 06:00-22:00,,,,,,,,"{""convenience""}",chain,,,,,,,,,,,pending,low,OpenStreetMap,2026-04-19,2026-04-19 06:58:54
node/11435897766,Five Acre Farm Shop,Food & Produce,food_produce,food-and-produce,,,,five-acre-farm-shop,51.442383,-2.6137724,,,,,,,,,,,,"{""deli""}",independent,,,,,,,,,,,pending,standard,OpenStreetMap,2026-04-19,2026-04-19 06:58:54
node/4749634967,Tobacco Factory Market,Food & Produce,food_produce,food-and-produce,,,,tobacco-factory-market,51.4426584,-2.6134949,,,,Su 10:00-14:30,,,,,,,,"{""marketplace""}",independent,,,,,,,,,,,pending,standard,OpenStreetMap,2026-04-19,2026-04-19 06:58:54
node/12923053147,Heron Foods,Food & Produce,food_produce,food-and-produce,"102-106 East Street, Bristol, BS3 4EY",bristol,bedminster,heron-foods,51.4416017,-2.5982583,,https://heronfoods.com/store/bedminster/,,Mo-Sa 08:00-18:00; Su 10:00-16:00,,,,,,,,"{""supermarket""}",independent,,,,,,,,,,,pending,standard,OpenStreetMap,2026-04-19,2026-04-19 06:58:54
node/13357250775,Southville Deli,Food & Produce,food_produce,food-and-produce,,,,southville-deli,51.4424466,-2.5959408,,,,,,,,,,,,"{""deli""}",independent,,,,,,,,,,,pending,standard,OpenStreetMap,2026-04-19,2026-04-19 06:58:54
node/12512022293,Newquay road convenience store,Food & Produce,food_produce,food-and-produce,,,,newquay-road-convenience-store,51.4267588,-2.5791471,,,,,,,,,,,,"{""convenience""}",independent,,,,,,,,,,,pending,standard,OpenStreetMap,2026-04-19,2026-04-19 06:58:54
node/13145150507,The Park Deli,Food & Produce,food_produce,food-and-produce,,,,the-park-deli,51.4375272,-2.5846446,,,,,,,,,,,,"{""deli""}",independent,,,,,,,,,,,pending,standard,OpenStreetMap,2026-04-19,2026-04-19 06:58:54
node/2384478514,Redcliffe Premier,Food & Produce,food_produce,food-and-produce,"Redcliff Hill, Bristol, BS1 6TB",bristol,,redcliffe-premier,51.4468762,-2.5911857,,,,,,,,,,,,"{""convenience""}",independent,,,,,,,,,,,pending,standard,OpenStreetMap,2026-04-19,2026-04-19 06:58:54
node/11159406779,Londis,Food & Produce,food_produce,food-and-produce,"194-196 Wells Road, Bristol, BS4 2AX",bristol,knowle,londis,51.4389254,-2.5723368,,,,,,,,,,,,"{""convenience""}",independent,,,,,,,,,,,pending,standard,OpenStreetMap,2026-04-19,2026-04-19 06:58:54
node/6780649303,Chi foof,Food & Produce,food_produce,food-and-produce,,,,chi-foof,51.4482776,-2.5733843,,,,Mo-Fr 06:00-12:00,,,,,,,,"{""spices""}",independent,,,,,,,,,,,pending,standard,OpenStreetMap,2026-04-19,2026-04-19 06:58:54
node/7817700261,Spar,Food & Produce,food_produce,food-and-produce,"12 Gilda Parade, Bristol, BS14 9HY",bristol,whitchurch,spar,51.4138443,-2.560038,,https://www.spar.co.uk/store-locator/awl26862-spar-gilda-parade,,,,,,,,,,"{""convenience""}",independent,,,,,,,,,,,pending,standard,OpenStreetMap,2026-04-19,2026-04-19 06:58:54
node/4927525625,KPR convenience store,Food & Produce,food_produce,food-and-produce,"20 Kensington Park Road, Bristol, BS4 3HP",bristol,brislington,kpr-convenience-store,51.4360776,-2.5573783,,,,,,,,,,,,"{""convenience""}",independent,,,,,,,,,,,pending,standard,OpenStreetMap,2026-04-19,2026-04-19 06:58:54
node/3683487308,Bellevue Convenience Store,Food & Produce,food_produce,food-and-produce,"26 Bellevue Park, Bristol, BS4 4JR",bristol,brislington,bellevue-convenience-store,51.4359564,-2.5483582,,https://www.premier-stores.co.uk/our-stores/bellevue-stores,,06:00-22:00,,,,,,,,"{""convenience""}",independent,,,,,,,,,,,pending,standard,OpenStreetMap,2026-04-19,2026-04-19 06:58:54
node/12959516255,Restore,Food & Produce,food_produce,food-and-produce,,,,restore,51.449892,-2.6063525,,,,,,,,,,,,"{""deli""}",independent,,,,,,,,,,,pending,standard,OpenStreetMap,2026-04-19,2026-04-19 06:58:54
node/12961242061,Tesco Express,Food & Produce,food_produce,food-and-produce,"Canons Way, Bristol, BS1 5JZ",bristol,city-centre,tesco-express,51.4499169,-2.6028876,,https://www.tesco.com/store-locator/bristol/7-millennium-parade,,,,,,,,,,"{""convenience""}",chain,,,,,,,,,,,pending,low,OpenStreetMap,2026-04-19,2026-04-19 06:58:54
node/5254795218,The Harbourside Market,Food & Produce,food_produce,food-and-produce,"Bristol, BS1 4DA",bristol,,the-harbourside-market,51.4526246,-2.5975738,,,,We-Th 12:00-14:30; Sa-Su 11:00-16:00,,,,,,,,"{""marketplace""}",independent,,,,,,,,,,,pending,standard,OpenStreetMap,2026-04-19,2026-04-19 06:58:54
node/12435832628,Langyu,Food & Produce,food_produce,food-and-produce,"Bristol, BS1 1NA",bristol,,langyu,51.4534729,-2.5957437,,,,,,,,,,,,"{""convenience"",""chinese"",""japanese"",""korean""}",independent,,,,,,,,,,,pending,standard,OpenStreetMap,2026-04-19,2026-04-19 06:58:54
node/2988644443,M&S Food,Food & Produce,food_produce,food-and-produce,,,,m-s-food,51.4585046,-2.5963784,,https://www.marksandspencer.com/stores/bristol-royal-nhs-hospital-1259,,Mo-Fr 07:00-21:00; Sa 07:00-20:00; Su 09:00-17:00,,,,,,,,"{""convenience""}",independent,,,,,,,,,,,pending,standard,OpenStreetMap,2026-04-19,2026-04-19 06:58:54
node/1892330960,Whiteladies Road Farmers' Market,Food & Produce,food_produce,food-and-produce,,,,whiteladies-road-farmers-market,51.4680955,-2.6133877,,,,,,,,,,,,"{""marketplace""}",independent,,,,,,,,,,,pending,standard,OpenStreetMap,2026-04-19,2026-04-19 06:58:54
node/5492266401,Hot Sauce Emporium,Food & Produce,food_produce,food-and-produce,"Corn Street, Bristol, BS1 1HQ",bristol,city-centre,hot-sauce-emporium,51.454533,-2.5934404,,,,,,,,,,,,"{""deli""}",independent,,,,,,,,,,,pending,standard,OpenStreetMap,2026-04-19,2026-04-19 06:58:54
node/13114906356,Pasture Butchers,Food & Produce,food_produce,food-and-produce,"Tannery House St Thomas Street, Bristol, BS1 6ZD",bristol,redcliffe,pasture-butchers,51.4517079,-2.5891006,,https://primebypasture.com/,,,,,,,,,,"{""butcher""}",independent,,,,,,,,,,,pending,standard,OpenStreetMap,2026-04-19,2026-04-19 06:58:54
node/13125158252,Tesco Express,Food & Produce,food_produce,food-and-produce,"11-19 Wine Street, Bristol, BS1 2PH",bristol,city-centre,tesco-express,51.4553564,-2.592282,,https://www.tesco.com/store-locator/bristol/prudential-buildings,,Mo-Su 06:00-23:00,,,,,,,,"{""convenience""}",chain,,,,,,,,,,,pending,low,OpenStreetMap,2026-04-19,2026-04-19 06:58:54
node/3940436646,McColl's,Food & Produce,food_produce,food-and-produce,"1 Temple Way, Bristol, BS2 0BY",bristol,redcliffe,mccolls,51.4544401,-2.5828401,,https://www.mccolls.co.uk/storelocator/bristol-temple-way/,,,,,,,,,,"{""convenience""}",independent,,,,,,,,,,,pending,standard,OpenStreetMap,2026-04-19,2026-04-19 06:58:54
node/9858050617,Temple Quay Market,Food & Produce,food_produce,food-and-produce,,,,temple-quay-market,51.4510686,-2.5821323,,https://www.templequaymarket.co.uk/,,"Tu,Th 12:00-14:00",,,,,,,,"{""marketplace""}",independent,,templequaymarket,,,,,,,,,pending,standard,OpenStreetMap,2026-04-19,2026-04-19 06:58:54
node/12883505829,Celebration Cake Centre,Food & Produce,food_produce,food-and-produce,"58 Victoria Street, Bristol, BS1 6DE",bristol,,celebration-cake-centre,51.451937,-2.5873148,,,,,,,,,,,,"{""confectionery""}",independent,,,,,,,Q26571052,,,,pending,standard,OpenStreetMap,2026-04-19,2026-04-19 06:58:54
node/12883505831,Temple News,Food & Produce,food_produce,food-and-produce,"62-64 Victoria Street, Bristol, BS1 6DE",bristol,redcliffe,temple-news,51.4518549,-2.587274,,,,,,,,,,,,"{""convenience""}",independent,,,,,,,,,,,pending,standard,OpenStreetMap,2026-04-19,2026-04-19 06:58:54
node/12883505850,Greggs,Food & Produce,food_produce,food-and-produce,"Transom House Victoria Street, Bristol, BS1 6AH",bristol,,greggs,51.451851,-2.5879223,,,,,,,,,,,,"{""fast_food"",""bakery"",""sandwich"",""bakery""}",chain,,,,,,,,,,,pending,low,OpenStreetMap,2026-04-19,2026-04-19 06:58:54
node/2900427077,Cornish Bakehouse,Food & Produce,food_produce,food-and-produce,"16 Castle Gallery, Bristol, BS1 3XE",bristol,,cornish-bakehouse,51.4561107,-2.5902276,,,,,,,,,,,,"{""bakery""}",independent,,,,,,,,,,,pending,standard,OpenStreetMap,2026-04-19,2026-04-19 06:58:54
node/2900429302,Parsons,Food & Produce,food_produce,food-and-produce,,,,parsons,51.4571069,-2.5893435,,,,,,,,,,,,"{""bakery""}",independent,,,,,,,,,,,pending,standard,OpenStreetMap,2026-04-19,2026-04-19 06:58:54
node/6797583343,168 Oriental,Food & Produce,food_produce,food-and-produce,"Little Chinatown Nelson Street, Bristol, BS1 2BJ",bristol,,168-oriental,51.4565424,-2.5944082,,,,Mo-Su 10:00-21:00,,,,,,,,"{""supermarket""}",independent,,,,,,,,,,,pending,standard,OpenStreetMap,2026-04-19,2026-04-19 06:58:54
node/9955013617,Premier Express,Food & Produce,food_produce,food-and-produce,,,,premier-express,51.4618394,-2.5902184,,https://www.premier-stores.co.uk/our-stores/green-croft,,,,,,,,,,"{""convenience""}",independent,,,,,,,,,,,pending,standard,OpenStreetMap,2026-04-19,2026-04-19 06:58:54
node/12271978670,Londis,Food & Produce,food_produce,food-and-produce,,,,londis,51.4567638,-2.5940716,,,,,,,,,,,,"{""convenience""}",independent,,,,,,,,,,,pending,standard,OpenStreetMap,2026-04-19,2026-04-19 06:58:54
node/13203041401,Greggs,Food & Produce,food_produce,food-and-produce,Broadmead,,,greggs,51.4574679,-2.5902567,,,,,,,,,,,,"{""bakery""}",chain,,,,,,,,,,,pending,low,OpenStreetMap,2026-04-19,2026-04-19 06:58:54
node/3841830908,H&B,Food & Produce,food_produce,food-and-produce,,,,h-b,51.4584695,-2.5843582,,,,,,,,,,,,"{""deli""}",independent,,,,,,,,,,,pending,standard,OpenStreetMap,2026-04-19,2026-04-19 06:58:54
node/6498829564,Hotel Chocolat,Food & Produce,food_produce,food-and-produce,"Cabot Circus Brigstowe Street, Bristol, BS1 3BH",bristol,,hotel-chocolat,51.4584466,-2.5845914,,,,,,,,,,,,"{""confectionery""}",independent,,,,,,,,,,,pending,standard,OpenStreetMap,2026-04-19,2026-04-19 06:58:54
node/6498830794,Millie's Cookies,Food & Produce,food_produce,food-and-produce,"Cabot Circus Concorde Street, Bristol, BS1 3BD",bristol,city-centre,millies-cookies,51.4585911,-2.5854058,,,,,,,,,,,,"{""bakery""}",independent,,,,,,,,,,,pending,standard,OpenStreetMap,2026-04-19,2026-04-19 06:58:54
node/6498830803,Ben's Cookies,Food & Produce,food_produce,food-and-produce,"Cabot Circus George White Street, Bristol, BS1 3BA",bristol,city-centre,bens-cookies,51.4584181,-2.5863674,,,,,,,,,,,,"{""confectionery""}",independent,,,,,,,,,,,pending,standard,OpenStreetMap,2026-04-19,2026-04-19 06:58:54
node/6716789567,Farro Bakery,Food & Produce,food_produce,food-and-produce,"1 Brunswick Square, Bristol, BS2 8PE",bristol,saint-pauls,farro-bakery,51.4595848,-2.5878972,,,,,,,,,,,,"{""bakery""}",independent,,,,,,,,,,,pending,standard,OpenStreetMap,2026-04-19,2026-04-19 06:58:54
node/13516711319,M&S Simply Food,Food & Produce,food_produce,food-and-produce,,,,m-s-simply-food,51.4587231,-2.5845982,,,,,,,,,,,,"{""supermarket""}",independent,,,,,,,,,,,pending,standard,OpenStreetMap,2026-04-19,2026-04-19 06:58:54
node/2141950431,West Cornwall Pasty Co.,Food & Produce,food_produce,food-and-produce,"Between Plat 7-8, Bristol, BS1 6QS",bristol,,west-cornwall-pasty-co,51.4493843,-2.5803204,,,,Mo-Sa 06:30-21:00; Su 08:00-20:00,,,,,,,,"{""fast_food"",""bakery"",""pasty""}",independent,,,,,,,,,,,pending,standard,OpenStreetMap,2026-04-19,2026-04-19 06:58:54
node/9591999712,Sainsbury's Local,Food & Produce,food_produce,food-and-produce,Avon Street,,,sainsburys-local,51.4529534,-2.5816259,+44 330 013 7711,https://stores.sainsburys.co.uk/6029/bristol-avon-street-local,,Mo-Su 07:00-23:00,,,,,,,,"{""convenience""}",chain,,,,,,,,,,,pending,low,OpenStreetMap,2026-04-19,2026-04-19 06:58:54
node/11065214763,Deliveroo,Food & Produce,food_produce,food-and-produce,"21-22 Oxford Street, Bristol, BS2 0QT",bristol,,deliveroo,51.4513108,-2.577797,,,,Mo-Su 10:00-24:00,,,,,,,,"{""supermarket""}",independent,,,,,,,,,,,pending,standard,OpenStreetMap,2026-04-19,2026-04-19 06:58:54
node/11065214765,Forest bakery,Food & Produce,food_produce,food-and-produce,"26 Oxford Street, Bristol, BS2 0QT",bristol,,forest-bakery,51.4514109,-2.5773641,,,,,,,,,,,,"{""bakery""}",independent,,,,,,,,,,,pending,standard,OpenStreetMap,2026-04-19,2026-04-19 06:58:54
node/12806046076,Cakesmiths,Food & Produce,food_produce,food-and-produce,,,,cakesmiths,51.4553078,-2.5761271,,,,,,,,,,,,"{""bakery""}",independent,,,,,,,,,,,pending,standard,OpenStreetMap,2026-04-19,2026-04-19 06:58:54
node/12806061116,Mokoko,Food & Produce,food_produce,food-and-produce,,,,mokoko,51.4526596,-2.5806332,,,,,,,,,,,,"{""cafe"",""bakery""}",independent,,,,,,,,,,,pending,standard,OpenStreetMap,2026-04-19,2026-04-19 06:58:54
node/12598276347,Old Market Express,Food & Produce,food_produce,food-and-produce,"60 West Street, Bristol, BS2 0BL",bristol,st-philips,old-market-express,51.4570923,-2.5774617,,,,,,,,,,,,"{""convenience""}",independent,,,,,,,,,,,pending,standard,OpenStreetMap,2026-04-19,2026-04-19 06:58:54
node/12598276362,Bulgarian Food Market,Food & Produce,food_produce,food-and-produce,"70 West Street, Bristol, BS2 0BL",bristol,st-philips,bulgarian-food-market,51.4571669,-2.5772071,,,,,,,,,,,,"{""deli""}",independent,,,,,,,,,,,pending,standard,OpenStreetMap,2026-04-19,2026-04-19 06:58:54
node/12806029168,Bakehouse,Food & Produce,food_produce,food-and-produce,6 Kingsland Trading Estate St. Philips Road,,,bakehouse,51.456024,-2.5758755,,https://bakehousebristol.com/,,"Mo-Fr 07:30-16:00; Sa, Su 08:00-16:00",,,,,,,,"{""bakery""}",independent,,,,,,,,,,,pending,standard,OpenStreetMap,2026-04-19,2026-04-19 06:58:54
node/13136156595,Deocraft Cakes,Food & Produce,food_produce,food-and-produce,"45 Old Market Street, Bristol, BS2 0EX, GB",bristol,saint-philips,deocraft-cakes,51.4564431,-2.5805535,,,,,,,,,,,,"{""bakery""}",independent,,,,,,,,,,,pending,standard,OpenStreetMap,2026-04-19,2026-04-19 06:58:54
node/13175131322,The organic store,Food & Produce,food_produce,food-and-produce,,,,the-organic-store,51.456108,-2.5808207,,,,,,,,,,,,"{""supermarket""}",independent,,,,,,,,,,,pending,standard,OpenStreetMap,2026-04-19,2026-04-19 06:58:54
node/13125536955,Elemental Collective,Food & Produce,food_produce,food-and-produce,"123 Stokes Croft, Bristol",bristol,saint-pauls,elemental-collective,51.4641376,-2.5898977,,,,,,,,,,,,"{""greengrocer""}",independent,,,,,,,,,,,pending,standard,OpenStreetMap,2026-04-19,2026-04-19 06:58:54
node/13681828901,Tropical Sun,Food & Produce,food_produce,food-and-produce,Stapleton Road,,,tropical-sun,51.4647581,-2.5701001,,,,,,,,,,,,"{""convenience""}",independent,,,,,,,,,,,pending,standard,OpenStreetMap,2026-04-19,2026-04-19 06:58:54
node/9559182677,The Butcher's Hook,Food & Produce,food_produce,food-and-produce,,,,the-butchers-hook,51.4945092,-2.6179694,,,,,,,,,,,,"{""butcher""}",independent,,,,,,,,,,,pending,standard,OpenStreetMap,2026-04-19,2026-04-19 06:58:54
node/12871380332,Spar,Food & Produce,food_produce,food-and-produce,,,,spar,51.4758269,-2.5912925,,,,,,,,,,,,"{""convenience""}",independent,,,,,,,,,,,pending,standard,OpenStreetMap,2026-04-19,2026-04-19 06:58:54
node/13279302061,BOBBYS NEWSAGENTS,Food & Produce,food_produce,food-and-produce,,,,bobbys-newsagents,51.4849639,-2.5859498,,,,,,,,,,,,"{""convenience""}",independent,,,,,,,,,,,pending,standard,OpenStreetMap,2026-04-19,2026-04-19 06:58:54
node/1924392536,Costcutter,Food & Produce,food_produce,food-and-produce,"Danby House Morris Road, Bristol, BS7 9TX",bristol,lockleaze,costcutter,51.4827833,-2.5727879,,,,,,,,,,,,"{""convenience""}",independent,,,,,,,,,,,pending,standard,OpenStreetMap,2026-04-19,2026-04-19 06:58:54
node/5816298511,M&S Food,Food & Produce,food_produce,food-and-produce,"Southmead Hospital Southmead Road, Bristol, BS10 5NB",bristol,southmead,m-s-food,51.496471,-2.5922021,,,,,,,,,,,,"{""convenience""}",independent,,,,,,,,,,,pending,standard,OpenStreetMap,2026-04-19,2026-04-19 06:58:54
node/4076049276,Barton Hill Market,Food & Produce,food_produce,food-and-produce,"186 Avonvale Road, Bristol, BS5 9SX",bristol,redfield,barton-hill-market,51.4548871,-2.5616756,,,,,,,,,,,,"{""convenience""}",independent,,,,,,,,,,,pending,standard,OpenStreetMap,2026-04-19,2026-04-19 06:58:54
node/4076049279,Alaso,Food & Produce,food_produce,food-and-produce,"184 Avonvale Road, Bristol, BS5 9SX",bristol,redfield,alaso,51.454913,-2.5615352,,,,,,,,,,,,"{""butcher""}",independent,,,,,,,,,,,pending,standard,OpenStreetMap,2026-04-19,2026-04-19 06:58:54
node/8842326678,Spar,Food & Produce,food_produce,food-and-produce,"180 Avonvale Road, Bristol, BS5 9SX",bristol,redfield,spar,51.4549474,-2.5612365,,,,,,,,,,,,"{""convenience""}",independent,,,,,,,,,,,pending,standard,OpenStreetMap,2026-04-19,2026-04-19 06:58:54
node/13470244988,Supermarket Store,Food & Produce,food_produce,food-and-produce,"1 Marsh Lane, BS5 9SB",,,supermarket-store,51.4546487,-2.5603014,,,,,,,,,,,,"{""convenience""}",independent,,,,,,,,,,,pending,standard,OpenStreetMap,2026-04-19,2026-04-19 06:58:54
node/13456599887,Pats News & Booze,Food & Produce,food_produce,food-and-produce,"104-106 Church Road, Bristol, BS5 9LE",bristol,redfield,pats-news-booze,51.4586222,-2.5576466,,,,,,,,,,,,"{""convenience""}",independent,,,,,,,,,,,pending,standard,OpenStreetMap,2026-04-19,2026-04-19 06:58:54
node/13456599894,Lili Mini Market,Food & Produce,food_produce,food-and-produce,,,,lili-mini-market,51.458337,-2.5588974,,,,Mo-Su 08:00-24:00,,,,,,,,"{""convenience""}",independent,,,,,,,,,,,pending,standard,OpenStreetMap,2026-04-19,2026-04-19 06:58:54
node/4053743567,Food Plus,Food & Produce,food_produce,food-and-produce,"176 Church Road, Bristol, BS5 9HX",bristol,redfield,food-plus,51.4594894,-2.5520939,,,,,,,,,,,,"{""convenience""}",independent,,,,,,,,,,,pending,standard,OpenStreetMap,2026-04-19,2026-04-19 06:58:54
node/13456599765,Bristol Loaf,Food & Produce,food_produce,food-and-produce,"211-213 Church Road, BS5 9HF",,redfield,bristol-loaf,51.4593362,-2.5548107,,,,,,,,,,,,"{""bakery""}",independent,,,,,,,,,,,pending,standard,OpenStreetMap,2026-04-19,2026-04-19 06:58:54
node/13456599781,Southville Deli,Food & Produce,food_produce,food-and-produce,"259-261 Church Road, Bristol, BS5 9HT",bristol,redfield,southville-deli,51.4596111,-2.5528828,+44 117 966 4507,https://www.southvilledeli.com/,,Mo-Fr 08:30-18:30; Sa 08:30-18:00; Su 10:00-17:00; PH off,,,,,,,,"{""deli""}",independent,,,,,,,,,,,pending,standard,OpenStreetMap,2026-04-19,2026-04-19 06:58:54
node/13456599843,Mini Mart,Food & Produce,food_produce,food-and-produce,"156 Church Road, BS5 9HX",,redfield,mini-mart,51.4594325,-2.5530051,,,,Mo-Su 08:00-23:00,,,,,,,,"{""convenience""}",independent,,,,,,,,,,,pending,standard,OpenStreetMap,2026-04-19,2026-04-19 06:58:54
node/13456599859,preserve,Food & Produce,food_produce,food-and-produce,"132 Church Road, Bristol, BS5 9HH",bristol,,preserve,51.4590523,-2.555363,,https://www.preservefoods.co.uk/,,Mo-Fr 09:30-18:00; Sa 09:00-17:30; Su 11:00-16:00,,,,,,,,"{""convenience""}",independent,,,,,,,,,,,pending,standard,OpenStreetMap,2026-04-19,2026-04-19 06:58:54
node/13458009572,Food 4 U,Food & Produce,food_produce,food-and-produce,"200 Church Road, Bristol, BS5 8AD",bristol,saint-george,food-4-u,51.459544,-2.5503892,,,,Mo-Sa 09:00-21:00; Su 10:00-20:00,,,,,,,,"{""deli""}",independent,,,,,,,,,,,pending,standard,OpenStreetMap,2026-04-19,2026-04-19 06:58:54
node/13021696987,Costcutter Bristol,Food & Produce,food_produce,food-and-produce,"345-347 Church Road, Bristol, BS5 8AA",bristol,saint-george,costcutter-bristol,51.4596216,-2.5479927,,,,Mo-Su 07:00-22:00,,,,,,,,"{""supermarket""}",independent,,,,,,,,,,,pending,standard,OpenStreetMap,2026-04-19,2026-04-19 06:58:54
node/13458009548,Karpaty Market,Food & Produce,food_produce,food-and-produce,"284-286 Church Road, Bristol, BS5 8AH",bristol,saint-george,karpaty-market,51.4597453,-2.5465342,,,,,,,,,,,,"{""convenience""}",independent,,,,,,,,,,,pending,standard,OpenStreetMap,2026-04-19,2026-04-19 06:58:54
node/8035495290,The Public Market,Food & Produce,food_produce,food-and-produce,"Mivart Street, Bristol, BS5 6JF",bristol,easton,the-public-market,51.4683529,-2.5625658,+441179 870 698,https://www.thepublicmarket.co.uk/pages/our-shops,,"Mo-Th 08:00-19:00; Fr,Sa 08:00-20:00; Su 09:00-18:00",,,,,,,,"{""supermarket""}",independent,,,,,,,,,,,pending,standard,OpenStreetMap,2026-04-19,2026-04-19 06:58:54
node/13669765801,Karwan Super Store,Food & Produce,food_produce,food-and-produce,,,,karwan-super-store,51.4651037,-2.563688,,,,24/7,,,,,,,,"{""convenience""}",independent,,,,,,,,,,,pending,standard,OpenStreetMap,2026-04-19,2026-04-19 06:58:54
node/12763150946,Matter Wholefoods,Food & Produce,food_produce,food-and-produce,"1 Greenbank Road, Bristol, BS5 6EZ",bristol,easton,matter-wholefoods,51.4678981,-2.5610059,,,,"Mo-Th 08:00-20:00, Fr-Sa 08:00-18:00, Su 09:00-18:00",,,,,,,,"{""greengrocer""}",independent,,,,,,,,,,,pending,standard,OpenStreetMap,2026-04-19,2026-04-19 06:58:54
node/7883586588,Maid Marion Convenience Store,Food & Produce,food_produce,food-and-produce,"64 Clouds Hill Road, Bristol, BS5 7LF",bristol,saint-george,maid-marion-convenience-store,51.4611055,-2.5390861,,https://www.premier-stores.co.uk/our-stores/maid-marion-convenience-store,,,,,,,,,,"{""convenience""}",independent,,,,,,,,,,,pending,standard,OpenStreetMap,2026-04-19,2026-04-19 06:58:54
node/9274827973,KSK News,Food & Produce,food_produce,food-and-produce,"Hillside Road, Bristol, BS5 7PU",bristol,,ksk-news,51.459194,-2.523735,,https://www.premier-stores.co.uk/our-stores/k-s-k-news,,,,,,,,,,"{""convenience""}",independent,,,,,,,,,,,pending,standard,OpenStreetMap,2026-04-19,2026-04-19 06:58:54
node/8500118118,Bakers Corner,Food & Produce,food_produce,food-and-produce,265 Two Mile Hill Road,,,bakers-corner,51.4630314,-2.5171199,,,,,,,,,,,,"{""bakery""}",independent,,,,,,,,,,,pending,standard,OpenStreetMap,2026-04-19,2026-04-19 06:58:54
node/1043480520,International Food Centre,Food & Produce,food_produce,food-and-produce,"585-587 Fishponds Road, Bristol, BS16 3AA",bristol,fishponds,international-food-centre,51.4772335,-2.5372631,,,,,,,,,,,,"{""supermarket""}",independent,,,,,,,,,,,pending,standard,OpenStreetMap,2026-04-19,2026-04-19 06:58:54
node/8499981408,Maxim European Foods,Food & Produce,food_produce,food-and-produce,313 Two Mile Hill Road,,,maxim-european-foods,51.463317,-2.515293,,,,,,,,,,,,"{""convenience""}",independent,,,,,,,,,,,pending,standard,OpenStreetMap,2026-04-19,2026-04-19 06:58:54
way/279668322,Dixon Convenience Store,Food & Produce,food_produce,food-and-produce,"170-172 King's Head Lane, Bristol, BS13 7BW, GB",bristol,bedminster-down,dixon-convenience-store,51.421317,-2.6279723,,,,Mo-Su 06:00-22:00,,,,,,,,"{""convenience""}",independent,,,,,,,,,,,pending,standard,OpenStreetMap,2026-04-19,2026-04-19 06:58:54
way/402545056,Parsons,Food & Produce,food_produce,food-and-produce,"105 South Liberty Lane, Bristol, BS3 2SZ",bristol,ashton-vale,parsons,51.4299494,-2.621363,,,,,,,,,,,,"{""bakery""}",independent,,,,,,,,,,,pending,standard,OpenStreetMap,2026-04-19,2026-04-19 06:58:54
way/378764302,Ashton News,Food & Produce,food_produce,food-and-produce,"174-176 Ashton Drive, Bristol, BS3 2PX",bristol,ashton-vale,ashton-news,51.4324457,-2.62731,,,,,,,,,,,,"{""convenience""}",independent,,,,,,,,,,,pending,standard,OpenStreetMap,2026-04-19,2026-04-19 06:58:54
way/356857768,Nibley Road Convenience Store,Food & Produce,food_produce,food-and-produce,"134 Nibley Road, Bristol, BS11 9XN",bristol,,nibley-road-convenience-store,51.4832579,-2.6750019,,https://www.premier-stores.co.uk/our-stores/nibley-road-convenience-store,,,,,,,,,,"{""convenience""}",independent,,,,,,,,,,,pending,standard,OpenStreetMap,2026-04-19,2026-04-19 06:58:54
way/372111932,Parsons,Food & Produce,food_produce,food-and-produce,"203 Avonmouth Road, Bristol, BS11 9EG",bristol,avonmouth,parsons,51.499185,-2.6956493,,,,,,,,,,,,"{""bakery""}",independent,,,,,,,,,,,pending,standard,OpenStreetMap,2026-04-19,2026-04-19 06:58:54
way/372111939,Co-op Food,Food & Produce,food_produce,food-and-produce,"193-195 Avonmouth Road, Bristol, BS11 9EG",bristol,avonmouth,co-op-food,51.4990976,-2.6953126,,https://www.coop.co.uk/store-finder/BS11-9EG/193-195-avonmouth-road,,Mo-Su 06:00-23:00,,,,,,,,"{""supermarket""}",chain,,,,,,,,,,,pending,low,OpenStreetMap,2026-04-19,2026-04-19 06:58:54
way/372131572,Avonmouth Convenience Store,Food & Produce,food_produce,food-and-produce,"Avonmouth Road, Bristol, BS11 9LP",bristol,,avonmouth-convenience-store,51.4991025,-2.6937566,,https://www.premier-stores.co.uk/our-stores/avonmouth-convenience-store,,,,,,,,,,"{""convenience""}",independent,,,,,,,,,,,pending,standard,OpenStreetMap,2026-04-19,2026-04-19 06:58:54
way/266446743,Sweet Tooth Delights,Food & Produce,food_produce,food-and-produce,"61 Pembroke Road, Bristol, BS11 9SA",bristol,shirehampton,sweet-tooth-delights,51.489317,-2.6785103,,,,,,,,,,,,"{""confectionery""}",independent,,,,,,,,,,,pending,standard,OpenStreetMap,2026-04-19,2026-04-19 06:58:54
way/266446925,Asda Express,Food & Produce,food_produce,food-and-produce,"High Street, Bristol, BS11 0DE",bristol,shirehampton,asda-express,51.4896143,-2.6781649,,https://storelocator.asda.com/south-west/bristol/high-street,,Mo-Su 06:00-23:00,,,,,,,,"{""convenience""}",chain,,,,,,,,,,,pending,low,OpenStreetMap,2026-04-19,2026-04-19 06:58:54
way/266448874,High Street Market,Food & Produce,food_produce,food-and-produce,"60 High Street, Bristol, BS11 0DJ",bristol,,high-street-market,51.4898518,-2.6772586,,,,,,,,,,,,"{""convenience""}",independent,,,,,,,,,,,pending,standard,OpenStreetMap,2026-04-19,2026-04-19 06:58:54
way/267156761,Heron Foods,Food & Produce,food_produce,food-and-produce,"36 High Street, Bristol, BS11 0DJ",bristol,shirehampton,heron-foods,51.4896157,-2.6762157,,https://heronfoods.com/store/shirehampton/,,Mo-Sa 08:00-20:00; Su 10:00-16:00,,,,,,,,"{""supermarket""}",independent,,,,,,,,,,,pending,standard,OpenStreetMap,2026-04-19,2026-04-19 06:58:54
way/267158922,Redland Bakery,Food & Produce,food_produce,food-and-produce,"7 High Street, Bristol, BS11 0DT",bristol,shirehampton,redland-bakery,51.4886706,-2.67474,,,,,,,,,,,,"{""bakery""}",independent,,,,,,,,,,,pending,standard,OpenStreetMap,2026-04-19,2026-04-19 06:58:54
way/267160042,Food Plus,Food & Produce,food_produce,food-and-produce,"15 High Street, Bristol, BS11 0DT",bristol,shirehampton,food-plus,51.4888182,-2.6750483,,,,,,,,,,,,"{""convenience""}",independent,,,,,,,,,,,pending,standard,OpenStreetMap,2026-04-19,2026-04-19 06:58:54
way/267305048,Shirehampton Co-op,Food & Produce,food_produce,food-and-produce,"45-49 High Street, Bristol, BS11 0DW",bristol,shirehampton,shirehampton-co-op,51.4893804,-2.6773431,,,,,,,,,,,,"{""supermarket""}",chain,,,,,,,,,,,pending,low,OpenStreetMap,2026-04-19,2026-04-19 06:58:54
way/569454527,Nisa Express,Food & Produce,food_produce,food-and-produce,"Kings Weston Avenue, Bristol, BS11 0AJ",bristol,,nisa-express,51.4947688,-2.6770311,,https://www.nisalocally.co.uk/stores/city-of-bristol/bristol/kingsweston-service-st,,,,,,,,,,"{""convenience""}",independent,,,,,,,,,,,pending,standard,OpenStreetMap,2026-04-19,2026-04-19 06:58:54
way/666625485,Shirehampton International Store,Food & Produce,food_produce,food-and-produce,"27a High Street, Bristol, BS11 0DX",bristol,shirehampton,shirehampton-international-store,51.4890271,-2.6755213,,,,,,,,,,,,"{""convenience""}",independent,,,,,,,,,,,pending,standard,OpenStreetMap,2026-04-19,2026-04-19 06:58:54
way/679140814,Wood Family Butchers,Food & Produce,food_produce,food-and-produce,"24 High Street, Bristol, BS11 0DL",bristol,shirehampton,wood-family-butchers,51.4893381,-2.6758401,,,,,,,,,,,,"{""butcher""}",independent,,,,,,,,,,,pending,standard,OpenStreetMap,2026-04-19,2026-04-19 06:58:54
way/273385294,Fryers Convenience Store,Food & Produce,food_produce,food-and-produce,"Lower High Street, Bristol, BS11 0AW",bristol,,fryers-convenience-store,51.4950951,-2.6835993,,,,,,,,,,,,"{""convenience""}",independent,,,,,,,,,,,pending,standard,OpenStreetMap,2026-04-19,2026-04-19 06:58:54
way/261967439,Londis,Food & Produce,food_produce,food-and-produce,"160 Shirehampton Road, Bristol, BS9 2EB",bristol,,londis,51.4885444,-2.649,,,,Mo-Su 07:00-21:00,,,,,,,,"{""convenience""}",independent,,,,,,,,,,,pending,standard,OpenStreetMap,2026-04-19,2026-04-19 06:58:54
way/279899302,Costcutter,Food & Produce,food_produce,food-and-produce,"32-34 Ridingleaze, Bristol, BS11 0QE",bristol,lawrence-weston,costcutter,51.5013562,-2.6586958,,https://store-locator.costcutter.co.uk/costcutter-a6722eafb245,,,,,,,,,,"{""convenience""}",independent,,,,,,,,,,,pending,standard,OpenStreetMap,2026-04-19,2026-04-19 06:58:54
way/649722368,Dingle News & Convenience Store,Food & Produce,food_produce,food-and-produce,"42 Westbury Lane, Bristol, BS9 2PP",bristol,coombe-dingle,dingle-news-convenience-store,51.4938429,-2.6476961,,https://www.premier-stores.co.uk/our-stores/dingle-news-conv-store,,,,,,,,,,"{""convenience""}",independent,,,,,,,,,,,pending,standard,OpenStreetMap,2026-04-19,2026-04-19 06:58:54
way/233184933,Welcome Stoke Bishop,Food & Produce,food_produce,food-and-produce,"5 Druid Hill, Bristol, BS9 1EW",bristol,stoke-bishop,welcome-stoke-bishop,51.4811533,-2.6347204,,,,,,,,,,,,"{""supermarket""}",independent,,,,,,,,,,,pending,standard,OpenStreetMap,2026-04-19,2026-04-19 06:58:54
way/172715330,Stoke Bishop's Co-op,Food & Produce,food_produce,food-and-produce,"55-57 Shirehampton Road, Bristol, BS9 2DW",bristol,sea-mills,stoke-bishops-co-op,51.4860037,-2.6413898,,https://www.coop.co.uk/store-finder/BS9-2DW/55-57-shirehampton-road,,"PH,Mo-Su 06:00-23:00",,,,,,,,"{""supermarket""}",chain,,,,,,,,,,,pending,low,OpenStreetMap,2026-04-19,2026-04-19 06:58:54
way/261967438,Sea Mills Convenience Store,Food & Produce,food_produce,food-and-produce,"125-127 Shirehampton Road, Bristol, BS9 2EA",bristol,sea-mills,sea-mills-convenience-store,51.4875504,-2.6472536,,https://www.premier-stores.co.uk/our-stores/sea-mills-convenience-store,,,,,,,,,,"{""convenience""}",independent,,,,,,,,,,,pending,standard,OpenStreetMap,2026-04-19,2026-04-19 06:58:54
way/171824445,Mr T.G Pullin's Bakery,Food & Produce,food_produce,food-and-produce,"7 Stoke Lane, Bristol, BS9 3RL",bristol,westbury-on-trym,mr-tg-pullins-bakery,51.4884022,-2.6254678,,,,,,,,,,,,"{""bakery""}",independent,,,,,,,,,,,pending,standard,OpenStreetMap,2026-04-19,2026-04-19 06:58:54
way/171824453,Lifestyle Express,Food & Produce,food_produce,food-and-produce,"133 Stoke Lane, Bristol, BS9 3RW",bristol,westbury-on-trym,lifestyle-express,51.4883918,-2.6247451,,,,Mo-Su 07:00-23:00,,,,,,,,"{""convenience""}",independent,,,,,,,,,,,pending,standard,OpenStreetMap,2026-04-19,2026-04-19 06:58:54
way/171824442,Stoke Lane's Co-op,Food & Produce,food_produce,food-and-produce,"141-145 Stoke Lane, Bristol, BS9 3RW",bristol,westbury-on-trym,stoke-lanes-co-op,51.4881125,-2.6248826,,https://www.coop.co.uk/store-finder/BS9-3RW/stoke-lane,,Mo-Sa 06:00-22:00; Su 10:00-16:00,,,,,,,,"{""supermarket""}",chain,,,,,,,,,,,pending,low,OpenStreetMap,2026-04-19,2026-04-19 06:58:54
way/275523234,Westbury Mini Market,Food & Produce,food_produce,food-and-produce,"32 Westbury Lane, Bristol, BS9 2PP",bristol,,westbury-mini-market,51.4938499,-2.6471604,,,,"Mo-Fr 07:00-22:00; Sa,Su 08:00-22:00",,,,,,,,"{""convenience""}",independent,,,,,,,,,,,pending,standard,OpenStreetMap,2026-04-19,2026-04-19 06:58:54
way/171824448,Zest,Food & Produce,food_produce,food-and-produce,"130 Stoke Lane, Bristol, BS9 3RJ",bristol,westbury-on-trym,zest,51.4888939,-2.6245472,,,,,,,,,,,,"{""deli""}",independent,,,,,,,,,,,pending,standard,OpenStreetMap,2026-04-19,2026-04-19 06:58:54
way/188083890,Morrisons,Food & Produce,food_produce,food-and-produce,"Hareclive Road, Bristol, BS13 0BE",bristol,,morrisons,51.4051542,-2.5997028,,https://my.morrisons.com/storefinder/143/bristol-hartcliffe,,,,,,,,,,"{""supermarket""}",chain,,,,,,,,,,,pending,low,OpenStreetMap,2026-04-19,2026-04-19 06:58:54
way/672259788,Iceland,Food & Produce,food_produce,food-and-produce,"1-3 Peterson Avenue, Bristol, BS13 0BE",bristol,,iceland,51.40509,-2.5980153,,https://www.iceland.co.uk/store-finder/store?StoreID=472&StoreName=HARTCLIFFE%20SYMES%20AVE,,,,,,,,,,"{""supermarket""}",chain,,,,,,,,,,,pending,low,OpenStreetMap,2026-04-19,2026-04-19 06:58:54
way/672259789,Greggs,Food & Produce,food_produce,food-and-produce,"8 Peterson Avenue, Bristol, BS13 0BE",bristol,hartcliffe,greggs,51.4047377,-2.598187,,,,,,,,,,,,"{""fast_food"",""bakery"",""sandwich"",""bakery""}",chain,,,,,,,,,,,pending,low,OpenStreetMap,2026-04-19,2026-04-19 06:58:54
way/672259790,Cliffe Market,Food & Produce,food_produce,food-and-produce,"7 Peterson Avenue, Bristol, BS13 0BE",bristol,hartcliffe,cliffe-market,51.4047965,-2.5981584,,,,,,,,,,,,"{""convenience""}",independent,,,,,,,,,,,pending,standard,OpenStreetMap,2026-04-19,2026-04-19 06:58:54
way/188084124,Lidl,Food & Produce,food_produce,food-and-produce,"59 Whitchurch Lane, Bristol, BS13 7TE",bristol,bishopsworth,lidl,51.4146068,-2.6114237,,https://www.lidl.co.uk/s/en-GB/store-finder/bristol/bishopsworth/whitchurch-lane-59/,,Mo-Sa 08:00-21:00; Su 10:00-16:00,,,,,,,,"{""supermarket""}",chain,,,,,,,,,,,pending,low,OpenStreetMap,2026-04-19,2026-04-19 06:58:54
way/628149329,Sweet Retreat,Food & Produce,food_produce,food-and-produce,"The Gatehouse Hareclive Road, Bristol, BS13 9JN",bristol,,sweet-retreat,51.412576,-2.6111356,,,,,,,,,,,,"{""confectionery""}",independent,,,,,,,,,,,pending,standard,OpenStreetMap,2026-04-19,2026-04-19 06:58:54
way/402537751,Dave John Butchers,Food & Produce,food_produce,food-and-produce,"2A Saint Peters Rise, Bristol, BS13 7LU",bristol,,dave-john-butchers,51.4183789,-2.6171308,,,,"Mo,We,Sa 07:15-13:00; Tu,Th,Fr 07:15-15:00",,,,,,,,"{""butcher""}",independent,,,,,,,,,,,pending,standard,OpenStreetMap,2026-04-19,2026-04-19 06:58:54
way/402537756,St Peters Rise Convenience Store,Food & Produce,food_produce,food-and-produce,"5A-6A Saint Peters Rise, Bristol, BS13 7LU",bristol,,st-peters-rise-convenience-store,51.4185186,-2.6166055,,,,,,,,,,,,"{""convenience""}",independent,,,,,,,,,,,pending,standard,OpenStreetMap,2026-04-19,2026-04-19 06:58:54
way/402535344,Costcutter,Food & Produce,food_produce,food-and-produce,"Saint Peters Rise, Bristol, BS13 7ND",bristol,,costcutter,51.4216425,-2.6089911,,,,,,,,,,,,"{""convenience""}",independent,,,,,,,,,,,pending,standard,OpenStreetMap,2026-04-19,2026-04-19 06:58:54
way/908848020,Aldi,Food & Produce,food_produce,food-and-produce,"Imperial Park Wills Way, Bristol, BS13 7TJ, GB",bristol,,aldi,51.4156215,-2.5964212,,https://www.aldi.co.uk/store-finder/l/bristol/imperial-park/k072,,Mo-Sa 08:00-22:00; Su 10:00-16:00; PH 08:00-20:00,,,,,,,,"{""supermarket""}",chain,,,,,,,,,,,pending,low,OpenStreetMap,2026-04-19,2026-04-19 06:58:54
way/402535358,Inns Court Stores,Food & Produce,food_produce,food-and-produce,"9-11 Marshall Walk, Bristol, BS4 1TR",bristol,,inns-court-stores,51.4203028,-2.5954687,+44 1179 661983,https://www.premier-stores.co.uk/our-stores/inns-court-stores,,,,,,,,,,"{""convenience""}",independent,,,,,,,,,,,pending,standard,OpenStreetMap,2026-04-19,2026-04-19 06:58:54
way/628660810,M&S Foodhall,Food & Produce,food_produce,food-and-produce,"Bristol, BS13 7TJ",bristol,,m-s-foodhall,51.4169793,-2.6013396,,https://www.marksandspencer.com/stores/bristol-imperial-park-simply-food-1324,,Mo-Sa 08:00-20:00; Su 10:00-16:00,,,,,,,,"{""supermarket""}",independent,,,,,,,,,,,pending,standard,OpenStreetMap,2026-04-19,2026-04-19 06:58:54
way/1223203156,Morrisons Daily,Food & Produce,food_produce,food-and-produce,"2,4 Teyfant Road, BS13 0RF",,,morrisons-daily,51.4049085,-2.5904776,+44 117 964 1845,https://my.morrisons.com/storefinder/61134/morrisons-daily-bristol-hartcliffe-teyfant,,Mo-Sa 06:00-22:00; Su 07:00-22:00,,,,,,,,"{""convenience""}",chain,,,,,,,,,,,pending,low,OpenStreetMap,2026-04-19,2026-04-19 06:58:54
way/188084450,Morrisons Daily,Food & Produce,food_produce,food-and-produce,"Roman Park Road, Bristol, BS4 1UJ",bristol,hengrove,morrisons-daily,51.4183458,-2.5891428,,https://my.morrisons.com/storefinder/34601/morrisons-daily-hengrove-way,,,,,,,,,,"{""convenience""}",chain,,,,,,,,,,,pending,low,OpenStreetMap,2026-04-19,2026-04-19 06:58:54
way/1198934251,Whitchurch Car Boot Sale,Food & Produce,food_produce,food-and-produce,,,,whitchurch-car-boot-sale,51.412211,-2.5793229,,,,,,,,,,,,"{""marketplace""}",independent,,,,,,,,,,,pending,standard,OpenStreetMap,2026-04-19,2026-04-19 06:58:54
way/188083555,Asda,Food & Produce,food_produce,food-and-produce,"Oatlands Avenue, Bristol, BS14 0ST",bristol,hengrove,asda,51.4140004,-2.5707704,,https://storelocator.asda.com/south-west/bristol/oatlands-avenue,,Mo-Fr 07:00-24:00; Sa 07:00-22:00; Su 10:00-16:00,,,,,,,,"{""supermarket""}",chain,https://www.facebook.com/asdabristolwhitchurch/,,asda,,,,,,,,pending,low,OpenStreetMap,2026-04-19,2026-04-19 06:58:54
way/5847388,Nisa Local,Food & Produce,food_produce,food-and-produce,"134 Walsh Avenue, Bristol, BS14 9SH",bristol,hengrove,nisa-local,51.4174988,-2.5707601,,,,"Mo-Su,PH 07:00-21:00",,,,,,,,"{""convenience""}",independent,,,,,,,,,,,pending,standard,OpenStreetMap,2026-04-19,2026-04-19 06:58:54
way/402539013,Chaitan Convenience Store,Food & Produce,food_produce,food-and-produce,"151 Bishopsworth Road, Bristol, BS13 7LG",bristol,bedminster-down,chaitan-convenience-store,51.4244219,-2.6144223,,,,,,,,,,,,"{""convenience""}",independent,,,,,,,,,,,pending,standard,OpenStreetMap,2026-04-19,2026-04-19 06:58:54
way/402539019,The Co-operative Food,Food & Produce,food_produce,food-and-produce,"105-107 Bishopsworth Road, Bristol, BS13 7JR",bristol,bedminster-down,the-co-operative-food,51.4253711,-2.613855,,https://www.coop.co.uk/store-finder/BS13-7JR/109-bishopsworth-road,,Mo-Su 06:00-22:00,,,,,,,,"{""convenience""}",chain,,,,,,,,,,,pending,low,OpenStreetMap,2026-04-19,2026-04-19 06:58:54
way/123271635,Sainsbury's,Food & Produce,food_produce,food-and-produce,"111 Winterstoke Road, Bristol, BS3 2NS",bristol,ashton-gate,sainsburys,51.4335304,-2.6196775,,https://stores.sainsburys.co.uk/0678/winterstoke-road,,Mo-Sa 07:00-22:00; Su 10:00-16:00,,,,,,,,"{""supermarket""}",chain,,,,,,,,,,,pending,low,OpenStreetMap,2026-04-19,2026-04-19 06:58:54
way/377204909,Sweet candy land,Food & Produce,food_produce,food-and-produce,"5 Ashton Drive, Bristol, BS3 2PN",bristol,,sweet-candy-land,51.4346321,-2.6189432,,,,,,,,,,,,"{""confectionery""}",independent,,,,,,,,,,,pending,standard,OpenStreetMap,2026-04-19,2026-04-19 06:58:54
way/578659296,Lifestyle Express,Food & Produce,food_produce,food-and-produce,,,,lifestyle-express,51.4336182,-2.6120611,,,,,,,,,,,,"{""convenience""}",independent,,,,,,,,,,,pending,standard,OpenStreetMap,2026-04-19,2026-04-19 06:58:54
way/402525810,Bedminster Road Convenience Store,Food & Produce,food_produce,food-and-produce,"80 Bedminster Road, Bristol, BS3 5NP",bristol,bedminster,bedminster-road-convenience-store,51.4336197,-2.6035365,,,,,,,,,,,,"{""convenience""}",independent,,,,,,,,,,,pending,standard,OpenStreetMap,2026-04-19,2026-04-19 06:58:54
way/402525845,Spar,Food & Produce,food_produce,food-and-produce,"82-84 Bedminster Road, Bristol, BS3 5NP",bristol,bedminster,spar,51.4335822,-2.6036795,,https://www.spar.co.uk/store-locator/awl27042-spar-bedminster,,,,,,,,,,"{""convenience""}",independent,,,,,,,,,,,pending,standard,OpenStreetMap,2026-04-19,2026-04-19 06:58:54
way/402525846,Nisa Local,Food & Produce,food_produce,food-and-produce,"72-74 Parson Street, Bristol, BS3 5QQ",bristol,bedminster,nisa-local,51.4312008,-2.6048875,,https://www.nisalocally.co.uk/stores/bedminster/bristol/72-74-parsons-st,,Mo-Su 00:00-00:00,,,,,,,,"{""convenience""}",independent,,,,,,,,,,,pending,standard,OpenStreetMap,2026-04-19,2026-04-19 06:58:54
way/402271426,Premier,Food & Produce,food_produce,food-and-produce,"30 Bedminster Road, Bristol, BS3 5PD",bristol,bedminster,premier,51.4355445,-2.6000642,,,,,,,,,,,,"{""convenience""}",independent,,,,,,,,,,,pending,standard,OpenStreetMap,2026-04-19,2026-04-19 06:58:54
way/378764317,The Food Warehouse,Food & Produce,food_produce,food-and-produce,"South Bristol Retail Park Winterstoke Road, Bristol, BS3 2LQ, GB",bristol,,the-food-warehouse,51.4384277,-2.6198757,,https://www.thefoodwarehouse.com/store-locator/ashton-gate-south-bristol,,Mo-Sa 09:00-20:00; Su 10:30-16:30,,,,,,,,"{""supermarket""}",independent,,,,,,,,,,,pending,standard,OpenStreetMap,2026-04-19,2026-04-19 06:58:54
way/288989620,Tesco Express,Food & Produce,food_produce,food-and-produce,"166-176 North Street, Bristol, BS3 1HA",bristol,bedminster,tesco-express,51.4403423,-2.6089217,,https://www.tesco.com/store-locator/bedminster/166-176-north-st,,Mo-Su 06:00-23:00,,,,,,,,"{""convenience""}",chain,,,,,,,,,,,pending,low,OpenStreetMap,2026-04-19,2026-04-19 06:58:54
way/288991435,Zara's Chocolates,Food & Produce,food_produce,food-and-produce,"200 North Street, Bristol, BS3 1JF",bristol,southville,zaras-chocolates,51.440555,-2.6101934,,,,,,,,,,,,"{""confectionery""}",independent,,,,,,,,,,,pending,standard,OpenStreetMap,2026-04-19,2026-04-19 06:58:54
way/288991441,The Co-operative Food,Food & Produce,food_produce,food-and-produce,"206-208 North Street, Bristol, BS3 1JF",bristol,bedminster,the-co-operative-food,51.4406575,-2.6104645,,https://stores.southern.coop/bristol/bristol/206-208-north-street.html,,Mo-Su 07:00-22:00,,,,,,,,"{""convenience""}",chain,,,,,,,,,,,pending,low,OpenStreetMap,2026-04-19,2026-04-19 06:58:54
way/304146051,International Sky Supermarket,Food & Produce,food_produce,food-and-produce,"264-266 North Street, Bristol, BS3 1JA",bristol,bedminster,international-sky-supermarket,51.4418557,-2.6125866,,,,,,,,,,,,"{""supermarket""}",independent,,,,,,,,,,,pending,standard,OpenStreetMap,2026-04-19,2026-04-19 06:58:54
way/304146053,Occasion Cakes,Food & Produce,food_produce,food-and-produce,"281 North Street, Bristol, BS3 1JP, GB",bristol,bedminster,occasion-cakes,51.4421561,-2.6139313,,,,,,,,,,,,"{""bakery""}",independent,,,,,,,,,,,pending,standard,OpenStreetMap,2026-04-19,2026-04-19 06:58:54
way/304146066,Southville Deli,Food & Produce,food_produce,food-and-produce,"260-262 North Street, Bristol, BS3 1JA",bristol,bedminster,southville-deli,51.4417819,-2.612483,,,,,,,,,,,,"{""deli""}",independent,,,,,,,,,,,pending,standard,OpenStreetMap,2026-04-19,2026-04-19 06:58:54
way/304146068,Parsons Bakery,Food & Produce,food_produce,food-and-produce,"252 North Street, Bristol, BS3 1JA",bristol,bedminster,parsons-bakery,51.4415727,-2.6123053,,,,,,,,,,,,"{""bakery""}",independent,,,,,,,,,,,pending,standard,OpenStreetMap,2026-04-19,2026-04-19 06:58:54
way/304148641,Rare,Food & Produce,food_produce,food-and-produce,"250 North Street, Bristol, BS3 1JD, GB",bristol,bedminster,rare,51.4415106,-2.612051,,,,,,,,,,,,"{""butcher""}",independent,,,,,,,,,,,pending,standard,OpenStreetMap,2026-04-19,2026-04-19 06:58:54
way/304288688,Ashton Fruit Shop,Food & Produce,food_produce,food-and-produce,"269 North Street, Bristol, BS3 1JN, GB",bristol,bedminster,ashton-fruit-shop,51.4418233,-2.6133624,,,,,,,,,,,,"{""greengrocer""}",independent,,,,,,,,,,,pending,standard,OpenStreetMap,2026-04-19,2026-04-19 06:58:54
way/304288690,Clarks Pies,Food & Produce,food_produce,food-and-produce,"259 North Street, Bristol, BS3 1JN, GB",bristol,bedminster,clarks-pies,51.4416444,-2.6130971,,,,,,,,,,,,"{""bakery""}",independent,,,,,,,,,,,pending,standard,OpenStreetMap,2026-04-19,2026-04-19 06:58:54
way/304288703,Southville Deli,Food & Produce,food_produce,food-and-produce,"253 North Street, Bristol, BS3 1JN, GB",bristol,bedminster,southville-deli,51.4415667,-2.612894,,,,,,,,,,,,"{""deli""}",independent,,,,,,,,,,,pending,standard,OpenStreetMap,2026-04-19,2026-04-19 06:58:54
way/378580792,Shorts News & Booze,Food & Produce,food_produce,food-and-produce,"135 Luckwell Road, Bristol, BS3 3ET",bristol,bedminster,shorts-news-booze,51.4367327,-2.612627,,,,,,,,,,,,"{""convenience""}",independent,,,,,,,,,,,pending,standard,OpenStreetMap,2026-04-19,2026-04-19 06:58:54
way/653726440,Bristol Fish LTD,Food & Produce,food_produce,food-and-produce,"252b North Street, Bristol, BS3 1JA",bristol,southvillebedminster,bristol-fish-ltd,51.4416413,-2.6121808,,,,,,,,,,,,"{""seafood""}",independent,,,,,,,,,,,pending,standard,OpenStreetMap,2026-04-19,2026-04-19 06:58:54
way/304146050,Mark's Bread,Food & Produce,food_produce,food-and-produce,"North Street, Bristol, BS3 1JP, GB",bristol,bedminster,marks-bread,51.442748,-2.6155009,,,,,,,,,,,,"{""bakery""}",independent,,,,,,,,,,,pending,standard,OpenStreetMap,2026-04-19,2026-04-19 06:58:54
way/463650593,Coronation Road Convenience Store,Food & Produce,food_produce,food-and-produce,"250-251 Coronation Road, Bristol, BS3 1RL",bristol,southville,coronation-road-convenience-store,51.444704,-2.6158056,,,,,,,,,,,,"{""convenience""}",independent,,,,,,,,,,,pending,standard,OpenStreetMap,2026-04-19,2026-04-19 06:58:54
way/32357395,Aldi,Food & Produce,food_produce,food-and-produce,"North Street, Bristol, BS3 1JA, GB",bristol,bedminster,aldi,51.4429225,-2.614135,,https://www.aldi.co.uk/store-finder/l/bristol/north-street/k013,,Mo-Sa 08:00-22:00; Su 10:00-16:00,,,,,,,,"{""supermarket""}",chain,,,,,,,,,,,pending,low,OpenStreetMap,2026-04-19,2026-04-19 06:58:54
way/126358469,Morrisons Daily,Food & Produce,food_produce,food-and-produce,"1 Mardyke Ferry Road, Bristol, BS1 6TT",bristol,hotwells,morrisons-daily,51.4468251,-2.6117927,,https://my.morrisons.com/storefinder/65923/morrisons-daily-bristol-baltic-wharf,,,,,,,,,,"{""convenience""}",chain,,,,,,,,,,,pending,low,OpenStreetMap,2026-04-19,2026-04-19 06:58:54
way/463637996,lifestyle express,Food & Produce,food_produce,food-and-produce,"Coronation Road, Bristol, BS3 1RN",bristol,southville,lifestyle-express,51.4456601,-2.6144621,,,,,,,,,,,,"{""convenience""}",independent,,,,,,,,,,,pending,standard,OpenStreetMap,2026-04-19,2026-04-19 06:58:54
way/769789622,Co-op Food,Food & Produce,food_produce,food-and-produce,"171-178 Coronation Road, Bristol, BS3 1RF",bristol,southville,co-op-food,51.4458192,-2.61041,,https://www.coop.co.uk/store-finder/BS3-1RF/171-179-coronation-road,,Mo-Su 07:30-22:00,,,,,,,,"{""convenience""}",chain,,,,,,,,,,,pending,low,OpenStreetMap,2026-04-19,2026-04-19 06:58:54
way/288988237,Avon Food & Wine,Food & Produce,food_produce,food-and-produce,"38 North Street, Bristol, BS3 1HW",bristol,bedminster,avon-food-wine,51.4412505,-2.60313,,,,,,,,,,,,"{""convenience""}",independent,,,,,,,,,,,pending,standard,OpenStreetMap,2026-04-19,2026-04-19 06:58:54
way/288988271,Zero Green,Food & Produce,food_produce,food-and-produce,"80 North Street, Bristol, BS3 1HJ",bristol,,zero-green,51.4407885,-2.6051255,,https://www.zerogreenbristol.co.uk/,,,,,,,,,,"{""convenience""}",independent,,,,,,,,,,,pending,standard,OpenStreetMap,2026-04-19,2026-04-19 06:58:54
way/363047204,North Street Cheese Company,Food & Produce,food_produce,food-and-produce,"55 North Street, Bristol, BS3 1EN",bristol,,north-street-cheese-company,51.4408289,-2.6038656,,,,,,,,,,,,"{""cheese""}",independent,,,,,,,,,,,pending,standard,OpenStreetMap,2026-04-19,2026-04-19 06:58:54
way/363047211,Dios Deli,Food & Produce,food_produce,food-and-produce,"71 North Street, Bristol, BS3 1ES",bristol,bedminster,dios-deli,51.4406251,-2.604627,,,,,,,,,,,,"{""deli""}",independent,,,,,,,,,,,pending,standard,OpenStreetMap,2026-04-19,2026-04-19 06:58:54
way/363047217,Hugo's,Food & Produce,food_produce,food-and-produce,"73 North Street, Bristol, BS3 1ES",bristol,,hugos,51.440619,-2.6046956,,,,,,,,,,,,"{""deli""}",independent,,,,,,,,,,,pending,standard,OpenStreetMap,2026-04-19,2026-04-19 06:58:54
way/377211975,Shop'n'Save Convenience Store,Food & Produce,food_produce,food-and-produce,"West Street, Bristol, BS3 3PN",bristol,,shopnsave-convenience-store,51.4362415,-2.6055485,,https://www.premier-stores.co.uk/our-stores/shop-n-save-convenience-store,,,,,,,,,,"{""convenience""}",independent,,,,,,,,,,,pending,standard,OpenStreetMap,2026-04-19,2026-04-19 06:58:54
way/377211980,Best Off Licence & Convenience Store,Food & Produce,food_produce,food-and-produce,"137-139 West Street, Bristol, BS3 3PD",bristol,bedminster,best-off-licence-convenience-store,51.4364092,-2.6053081,,,,,,,,,,,,"{""convenience""}",independent,,,,,,,,,,,pending,standard,OpenStreetMap,2026-04-19,2026-04-19 06:58:54
way/378579404,Tesco Express,Food & Produce,food_produce,food-and-produce,"79 West Street, Bristol, BS3 3NU",bristol,bedminster,tesco-express,51.4381473,-2.603072,,https://www.tesco.com/store-locator/bristol/1-w-st,,Mo-Su 06:00-23:00,,,,,,,,"{""convenience""}",chain,,,,,,,,,,,pending,low,OpenStreetMap,2026-04-19,2026-04-19 06:58:54
way/128069577,Lidl,Food & Produce,food_produce,food-and-produce,"Sheene Road, Bristol, BS3 4EG",bristol,bedminster,lidl,51.4381636,-2.6007554,,https://www.lidl.co.uk/s/en-GB/store-finder/bristol/bedminster/sheene-road/,,Mo-Sa 08:00-22:00; Su 10:00-16:00,,,,,,,,"{""supermarket""}",chain,,,,,,,,,,,pending,low,OpenStreetMap,2026-04-19,2026-04-19 06:58:54
way/288984343,Mr Blue,Food & Produce,food_produce,food-and-produce,42 Cannon Street,,,mr-blue,51.4415317,-2.6012651,,,,,,,,,,,,"{""convenience""}",independent,,,,,,,,,,,pending,standard,OpenStreetMap,2026-04-19,2026-04-19 06:58:54
way/288984352,Food Plus,Food & Produce,food_produce,food-and-produce,"3-7 Cannon Street, Bristol, BS3 1BH",bristol,bedminster,food-plus,51.4408804,-2.6011916,,,,,,,,,,,,"{""deli""}",independent,,,,,,,,,,,pending,standard,OpenStreetMap,2026-04-19,2026-04-19 06:58:54
way/376590365,Preserve,Food & Produce,food_produce,food-and-produce,"72 East Street, Bristol, BS3 4EY",bristol,bedminster,preserve,51.4420574,-2.5972829,,https://preservefoods.co.uk/,,Mo-Fr 09:30-18:00; Sa 09:00-17:30; Su 11:00-16:00,,,,,,,,"{""deli""}",independent,,,,,,,,,,,pending,standard,OpenStreetMap,2026-04-19,2026-04-19 06:58:54
way/377388292,Stan Butt,Food & Produce,food_produce,food-and-produce,"137 East Street, Bristol, BS3 4EL",bristol,bedminster,stan-butt,51.4410069,-2.5993916,,,,,,,,,,,,"{""butcher""}",independent,,,,,,,,,,,pending,standard,OpenStreetMap,2026-04-19,2026-04-19 06:58:54
way/377394483,East Street Butcher,Food & Produce,food_produce,food-and-produce,"59 East Street, Bristol, BS3 4HB",bristol,bedminster,east-street-butcher,51.4419598,-2.5964924,,,,,,,,,,,,"{""butcher""}",independent,,,,,,,,,,,pending,standard,OpenStreetMap,2026-04-19,2026-04-19 06:58:54
way/377394495,Raff Minimarket,Food & Produce,food_produce,food-and-produce,"East Street, Bristol, BS3 4HB",bristol,,raff-minimarket,51.4419009,-2.5966497,,,,,,,,,,,,"{""convenience""}",independent,,,,,,,,,,,pending,standard,OpenStreetMap,2026-04-19,2026-04-19 06:58:54
way/377394497,East St Deli Co,Food & Produce,food_produce,food-and-produce,"Bristol, BS3 4HA",bristol,,east-st-deli-co,51.4415954,-2.5977742,,,,,,,,,,,,"{""deli""}",independent,,,,,,,,,,,pending,standard,OpenStreetMap,2026-04-19,2026-04-19 06:58:54
way/378030782,Bedminster Store,Food & Produce,food_produce,food-and-produce,"114-116 East Street, Bristol, BS3 4EY",bristol,,bedminster-store,51.4414393,-2.5985734,,,,,,,,,,,,"{""convenience""}",independent,,,,,,,,,,,pending,standard,OpenStreetMap,2026-04-19,2026-04-19 06:58:54
way/378030804,East Street Fruit Market,Food & Produce,food_produce,food-and-produce,"132 East Street, Bristol, BS3 4ET",bristol,bedminster,east-street-fruit-market,51.4412561,-2.5992687,,,,,,,,,,,,"{""greengrocer""}",independent,,,,,,,,,,,pending,standard,OpenStreetMap,2026-04-19,2026-04-19 06:58:54
way/378579397,Beverly's bakery,Food & Produce,food_produce,food-and-produce,"130 East Street, Bristol, BS3 4ET",bristol,bedminster,beverlys-bakery,51.4412781,-2.5991687,,,,,,,,,,,,"{""bakery""}",independent,,,,,,,,,,,pending,standard,OpenStreetMap,2026-04-19,2026-04-19 06:58:54
way/1274733431,D&C Thai Massage,Food & Produce,food_produce,food-and-produce,"63 East Street, Bristol, BS3 4HB",bristol,,d-c-thai-massage,51.4419295,-2.596598,,,,,,,,,,,,"{""greengrocer""}",independent,,,,,,,,,,,pending,standard,OpenStreetMap,2026-04-19,2026-04-19 06:58:54
way/125302531,Asda,Food & Produce,food_produce,food-and-produce,"East Street, Bristol, BS3 4JY",bristol,bedminster,asda,51.4438697,-2.5951641,,https://storelocator.asda.com/south-west/bristol/east-street,,Mo-Fr 06:00-24:00; Sa 06:00-21:00; Su 10:00-16:00,,,,,,,,"{""supermarket""}",chain,https://www.facebook.com/asdabedminster/,,asda,,,,,,,,pending,low,OpenStreetMap,2026-04-19,2026-04-19 06:58:54
way/288981086,East Street Market,Food & Produce,food_produce,food-and-produce,"23-25 East Street, Bristol, BS3 4HH",bristol,bedminster,east-street-market,51.4425164,-2.5953005,,,,,,,,,,,,"{""convenience""}",independent,,,,,,,,,,,pending,standard,OpenStreetMap,2026-04-19,2026-04-19 06:58:54
way/444204523,Better Food,Food & Produce,food_produce,food-and-produce,"Gaol Ferry Steps, Bristol, BS1 6WE",bristol,wapping-wharf,better-food,51.4463986,-2.5991593,,https://betterfood.co.uk/stores/,,Mo-Su 08:30-20:30,,,,,,,,"{""deli""}",independent,,,,,,,,,,,pending,standard,OpenStreetMap,2026-04-19,2026-04-19 06:58:54
way/464811690,Bush,Food & Produce,food_produce,food-and-produce,Cargo 1 Gaol Ferry Steps,,wapping-wharf,bush,51.446851,-2.5990575,,,,,,,,,,,,"{""bakery""}",independent,,,,,,,,,,,pending,standard,OpenStreetMap,2026-04-19,2026-04-19 06:58:54
way/561883491,East Bristol bakery,Food & Produce,food_produce,food-and-produce,"Cargo Gaol Ferry Steps, Bristol, BS1 6WE",bristol,hotwells,east-bristol-bakery,51.4474043,-2.5980495,,,,"Mo-Fr 08:00-15:00; Sa,Su 09:30-16:00",,,,,,,,"{""bakery""}",independent,,,,,,,,,,,pending,standard,OpenStreetMap,2026-04-19,2026-04-19 06:58:54
way/561883492,Meatbox,Food & Produce,food_produce,food-and-produce,"Cargo 2 Museum Street, Bristol, BS1 6ZA",bristol,,meatbox,51.4474186,-2.5980073,,,,Tu-Fr 10:00-17:00; Sa 10:00-16:00; Su 10:00-15:00,,,,,,,,"{""butcher""}",independent,,,,,,,,,,,pending,standard,OpenStreetMap,2026-04-19,2026-04-19 06:58:54
way/561890025,Herbivore,Food & Produce,food_produce,food-and-produce,"Cargo2 Museum Street, Bristol, BS1 6ZA",bristol,wapping-wharf,herbivore,51.4472286,-2.5986774,,,,,,,,,,,,"{""deli""}",independent,,,,,,,,,,,pending,standard,OpenStreetMap,2026-04-19,2026-04-19 06:58:54
way/561890029,The Bristol Cheesemonger,Food & Produce,food_produce,food-and-produce,"Cargo2 Museum Street, Bristol, BS1 6ZA",bristol,wapping-wharf,the-bristol-cheesemonger,51.4472856,-2.5985107,,,,Tu-Sa 11:00-18:00; Su 11:00-16:00,,,,,,,,"{""deli""}",independent,,,,,,,,,,,pending,standard,OpenStreetMap,2026-04-19,2026-04-19 06:58:54
way/1291136140,Clifton Seafood Company,Food & Produce,food_produce,food-and-produce,,,,clifton-seafood-company,51.4474342,-2.5978731,,,,,,,,,,,,"{""seafood""}",independent,,,,,,,,,,,pending,standard,OpenStreetMap,2026-04-19,2026-04-19 06:58:54
way/402525826,Local Value,Food & Produce,food_produce,food-and-produce,"Leinster Avenue, Bristol, BS4 1NL",bristol,,local-value,51.4256113,-2.5930395,,,,,,,,,,,,"{""convenience""}",independent,,,,,,,,,,,pending,standard,OpenStreetMap,2026-04-19,2026-04-19 06:58:54
way/402525827,Londis,Food & Produce,food_produce,food-and-produce,"56 Leinster Avenue, Bristol, BS4 1NL",bristol,knowle,londis,51.4259772,-2.592182,,,,,,,,,,,,"{""supermarket""}",independent,,,,,,,,,,,pending,standard,OpenStreetMap,2026-04-19,2026-04-19 06:58:54
way/402525839,11 Eleven,Food & Produce,food_produce,food-and-produce,"Leinster Avenue, Bristol, BS4 1NL",bristol,,11-eleven,51.4253834,-2.5925075,,,,,,,,,,,,"{""convenience""}",independent,,,,,,,,,,,pending,standard,OpenStreetMap,2026-04-19,2026-04-19 06:58:54
way/402525842,Knowle mini market,Food & Produce,food_produce,food-and-produce,"Leinster Avenue, Bristol",bristol,,knowle-mini-market,51.4256921,-2.5926761,,,,,,,,,,,,"{""convenience""}",independent,,,,,,,,,,,pending,standard,OpenStreetMap,2026-04-19,2026-04-19 06:58:54
way/376590355,Knowle saver,Food & Produce,food_produce,food-and-produce,"5 Melvin Square, Bristol, BS4 1LZ",bristol,knowle,knowle-saver,51.4285103,-2.5866976,,,,,,,,,,,,"{""convenience""}",independent,,,,,,,,,,,pending,standard,OpenStreetMap,2026-04-19,2026-04-19 06:58:54
way/690038823,Best-one,Food & Produce,food_produce,food-and-produce,"10 Melvin Square, Bristol, BS4 1LZ",bristol,knowle,best-one,51.4283175,-2.5855155,,https://stores.best-one.co.uk/melvin-square-post-office-best-one-b24b09d40896,,,,,,,,,,"{""convenience""}",independent,,,,,,,,,,,pending,standard,OpenStreetMap,2026-04-19,2026-04-19 06:58:54
way/376590367,Nisa Local,Food & Produce,food_produce,food-and-produce,"Glyn Vale, Bristol, BS3 5JG",bristol,,nisa-local,51.4326149,-2.5885921,,,,,,,,,,,,"{""convenience""}",independent,,,,,,,,,,,pending,standard,OpenStreetMap,2026-04-19,2026-04-19 06:58:54
way/376590353,Nisa Local,Food & Produce,food_produce,food-and-produce,"18 Glyn Vale, Bristol, BS3 5JG",bristol,knowle,nisa-local,51.4326788,-2.5885159,,,,,,,,,,,,"{""convenience""}",independent,,,,,,,,,,,pending,standard,OpenStreetMap,2026-04-19,2026-04-19 06:58:54
way/376582486,Best-one,Food & Produce,food_produce,food-and-produce,"Bristol, BS14 9DB",bristol,,best-one,51.423714,-2.5704738,,,,,,,,,,,,"{""convenience""}",independent,,,,,,,,,,,pending,standard,OpenStreetMap,2026-04-19,2026-04-19 06:58:54
way/376582497,Newshop,Food & Produce,food_produce,food-and-produce,"6 The Parade, Bristol, BS14 9DB",bristol,hengrove,newshop,51.4238802,-2.5701412,,,,,,,,,,,,"{""convenience""}",independent,,,,,,,,,,,pending,standard,OpenStreetMap,2026-04-19,2026-04-19 06:58:54
way/375933325,Tesco Express,Food & Produce,food_produce,food-and-produce,"4 Axbridge Road, Bristol, BS4 2RX",bristol,knowle,tesco-express,51.4339887,-2.5783728,,https://www.tesco.com/store-locator/bristol/4-friendship-rd,,Mo-Su 06:00-23:00,,,,,,,,"{""convenience""}",chain,,,,,,,,,,,pending,low,OpenStreetMap,2026-04-19,2026-04-19 06:58:54
way/376314035,Morrisons Daily,Food & Produce,food_produce,food-and-produce,"29 The Square, Bristol, BS4 2SR, GB",bristol,knowle,morrisons-daily,51.4310145,-2.569857,,https://my.morrisons.com/storefinder/65941/morrisons-daily-bristol-knowle-park,,,,,,,,,,"{""convenience""}",chain,,,,,,,,,,,pending,low,OpenStreetMap,2026-04-19,2026-04-19 06:58:54
way/376590359,Windmill Hill convenience store,Food & Produce,food_produce,food-and-produce,"2 Gwilliam Street, Bristol, BS3 4LS",bristol,,windmill-hill-convenience-store,51.4394421,-2.5937995,,,,,,,,,,,,"{""convenience""}",independent,,,,,,,,,,,pending,standard,OpenStreetMap,2026-04-19,2026-04-19 06:58:54
way/402271434,NKN convenience store,Food & Produce,food_produce,food-and-produce,"254 Saint Johns Lane, Bristol, BS3 5AU",bristol,bedminster,nkn-convenience-store,51.4364897,-2.592503,,,,,,,,,,,,"{""convenience""}",independent,,,,,,,,,,,pending,standard,OpenStreetMap,2026-04-19,2026-04-19 06:58:54
way/302511979,Gill Convenience Store,Food & Produce,food_produce,food-and-produce,"48-49 St Luke's Road, Bristol, BS3 4RX",bristol,totterdown,gill-convenience-store,51.4414706,-2.5827206,,,,Mo-Su 08:00-23:00,,,,,,,,"{""convenience""}",independent,,,,,,,,,,,pending,standard,OpenStreetMap,2026-04-19,2026-04-19 06:58:54
way/371019933,Select & Save,Food & Produce,food_produce,food-and-produce,"173-175 Saint John's Lane, Bristol, BS3 5AG",bristol,bedminster,select-save,51.4378535,-2.5831925,,,,Mo-Sa 07:00-22:00;Su 09:00-22:00,,,,,,,,"{""convenience""}",independent,,,,,,,,,,,pending,standard,OpenStreetMap,2026-04-19,2026-04-19 06:58:54
way/371019954,Gill Convenience Store,Food & Produce,food_produce,food-and-produce,Saint John's Lane,,,gill-convenience-store,51.438096,-2.5833791,,,,Mo-Sa 07:00-23:00;Su 07:30-23:00,,,,,,,,"{""convenience""}",independent,,,,,,,,,,,pending,standard,OpenStreetMap,2026-04-19,2026-04-19 06:58:54
way/485884391,The Park Bakery,Food & Produce,food_produce,food-and-produce,"94-96 Saint Johns Lane, Bristol, BS3 5AQ",bristol,bedminster,the-park-bakery,51.4378634,-2.5839469,,,,Mo-Fr 07:00-16:00; Sa 07:00-15:00,,,,,,,,"{""bakery""}",independent,,,,,,,,,,,pending,standard,OpenStreetMap,2026-04-19,2026-04-19 06:58:54
way/1211362159,Real Brazil store,Food & Produce,food_produce,food-and-produce,"106 Saint Johns Lane, Bristol",bristol,,real-brazil-store,51.4376242,-2.5843674,,,,,,,,,,,,"{""convenience""}",independent,,,,,,,,,,,pending,standard,OpenStreetMap,2026-04-19,2026-04-19 06:58:54
way/229595288,Krakus,Food & Produce,food_produce,food-and-produce,Bedminster Parade,,,krakus,51.4440411,-2.593262,,,,Mo-Sa 09:00-21:00; Su 10:00-17:00,,,,,,,,"{""deli""}",independent,,,,,,,,,,,pending,standard,OpenStreetMap,2026-04-19,2026-04-19 06:58:54
way/229595290,Gusto,Food & Produce,food_produce,food-and-produce,"74 Bedminster Parade, Bristol, BS3 4HL",bristol,bedminster,gusto,51.4438402,-2.593504,,,,,,,,,,,,"{""deli""}",independent,,,,,,,,,,,pending,standard,OpenStreetMap,2026-04-19,2026-04-19 06:58:54
way/229814804,Star News & Booze,Food & Produce,food_produce,food-and-produce,"46 Bedminster Parade, Bristol, BS3 4HS",bristol,bedminster,star-news-booze,51.4443823,-2.5928699,,,,,,,,,,,,"{""convenience""}",independent,,,,,,,,,,,pending,standard,OpenStreetMap,2026-04-19,2026-04-19 06:58:54
way/374003140,Redcliffe Stores,Food & Produce,food_produce,food-and-produce,"Freeling House Prewett Street, Bristol, BS1 6RE",bristol,redcliffe,redcliffe-stores,51.4471585,-2.5894804,,https://www.premier-stores.co.uk/our-stores/redcliffe-stores,,,,,,,,,,"{""convenience""}",independent,,,,,,,,,,,pending,standard,OpenStreetMap,2026-04-19,2026-04-19 06:58:54
way/1077279364,The Bristol Loaf,Food & Produce,food_produce,food-and-produce,"94-96 Bedminster Parade, BS3 4HL",,bedminster,the-bristol-loaf,51.4433909,-2.594208,,https://www.bristolloaf.co.uk/bedminster,,Mo-Sa 08:00-18:00; Su 10:00-16:00,,,,,,,,"{""deli""}",independent,,,,,,,,,,,pending,standard,OpenStreetMap,2026-04-19,2026-04-19 06:58:54
way/128553821,Londis,Food & Produce,food_produce,food-and-produce,,,,londis,51.4461328,-2.5831365,,https://www.londis.co.uk/our-stores/york-road,,,,,,,,,,"{""convenience""}",independent,,,,,,,,,,,pending,standard,OpenStreetMap,2026-04-19,2026-04-19 06:58:54
way/126102578,Patco Food & Wine,Food & Produce,food_produce,food-and-produce,"111 Wells Road, Bristol, BS4 2BS",bristol,totterdown,patco-food-wine,51.4414446,-2.5774517,,,,Mo-Su 09:00-24:00,,,,,,,,"{""convenience""}",independent,,,,,,,,,,,pending,standard,OpenStreetMap,2026-04-19,2026-04-19 06:58:54
way/127652139,The Bakehouse,Food & Produce,food_produce,food-and-produce,"118 Oxford Street, Bristol, BS3 4RL",bristol,totterdown,the-bakehouse,51.4420573,-2.5791084,+44 7530 293308,https://www.facebook.com/BakehouseTotterdown/,Lodze9@gmail.com,Mo-Fr 07:00-16:00; Sa 07:00-14:00,,,,,,,,"{""bakery""}",independent,,,,,,,,,,,pending,standard,OpenStreetMap,2026-04-19,2026-04-19 06:58:54
way/127652150,The Banana Boat,Food & Produce,food_produce,food-and-produce,"117 Oxford Street, Bristol, BS3 4RL",bristol,totterdown,the-banana-boat,51.4419994,-2.579115,,,,Mo-Fr 07:00-16:00; Sa 07:00-14:00,,,,,,,,"{""greengrocer""}",independent,,,,,,,,,,,pending,standard,OpenStreetMap,2026-04-19,2026-04-19 06:58:54
way/302511999,Tesco Express,Food & Produce,food_produce,food-and-produce,"33 Oxford Street, Bristol, BS3 4RJ",bristol,totterdown,tesco-express,51.4420606,-2.5785337,,https://www.tesco.com/store-locator/bristol/33-oxford-st,,Mo-Su 06:00-22:00,,,,,,,,"{""convenience""}",chain,,,,,,,,,,,pending,low,OpenStreetMap,2026-04-19,2026-04-19 06:58:54
way/371019923,ABC,Food & Produce,food_produce,food-and-produce,"164-166 Wells Road, Bristol, BS4 2AG",bristol,totterdown,abc,51.4406805,-2.5743713,,,,Mo-Fr 09:00-20:00; Sa 10:00-18:00,,,,,,,,"{""deli"",""polish""}",independent,,,,,,,,,,,pending,standard,OpenStreetMap,2026-04-19,2026-04-19 06:58:54
way/371019932,The Co-operative Food,Food & Produce,food_produce,food-and-produce,"174-178 Wells Road, Bristol, BS4 2AL",bristol,totterdown,the-co-operative-food,51.440119,-2.5733852,,https://stores.southern.coop/somerset/bristol/174-178-wells-road.html,,Mo-Su 07:00-22:00,,,,,,,,"{""convenience""}",chain,,,,,,,,,,,pending,low,OpenStreetMap,2026-04-19,2026-04-19 06:58:54
way/393904068,Bristol Fruit Market,Food & Produce,food_produce,food-and-produce,"Albert Crescent, Bristol, BS2 0YQ",bristol,saint-philips,bristol-fruit-market,51.4452989,-2.5715308,+441179771655,http://bristolfruitmarket.com,,,,,,,,,,"{""marketplace""}",independent,,,,,,,,,,,pending,standard,OpenStreetMap,2026-04-19,2026-04-19 06:58:54
way/422527966,Hart's Bakery,Food & Produce,food_produce,food-and-produce,"35 Lower Approach Road, Bristol, BS1 6QS",bristol,temple-meads,harts-bakery,51.449043,-2.5817754,,,,,,,,,,,,"{""bakery""}",independent,,,,,,,,,,,pending,standard,OpenStreetMap,2026-04-19,2026-04-19 06:58:54
way/125759271,Charles Saunders Ltd,Food & Produce,food_produce,food-and-produce,"Albert Road, Bristol, BS2 0XS",bristol,,charles-saunders-ltd,51.4439513,-2.569311,,,,,,,,,,,,"{""seafood""}",independent,,,,,,,,,,,pending,standard,OpenStreetMap,2026-04-19,2026-04-19 06:58:54
way/809927670,Tesco Express,Food & Produce,food_produce,food-and-produce,"698-704 Wells Road, Bristol, BS14 9HX",bristol,hengrove,tesco-express,51.4138031,-2.5593434,,https://www.tesco.com/store-locator/bristol/wells-rd,,,,,,,,,,"{""convenience""}",chain,,,,,,,,,,,pending,low,OpenStreetMap,2026-04-19,2026-04-19 06:58:54
way/834787111,Premier,Food & Produce,food_produce,food-and-produce,"Ridgeway Lane, Bristol, BS14 9PH",bristol,,premier,51.411035,-2.5622076,,https://www.premier-stores.co.uk/our-stores/ridgeway-stores,,,,,,,,,,"{""convenience""}",independent,,,,,,,,,,,pending,standard,OpenStreetMap,2026-04-19,2026-04-19 06:58:54
way/86700267,McColl's,Food & Produce,food_produce,food-and-produce,"90 Hollway Road, Bristol, BS14 8PG",bristol,stockwood,mccolls,51.4119683,-2.546867,,https://www.mccolls.co.uk/storelocator/bristol-stockwood/,,,,,,,,,,"{""convenience""}",independent,,,,,,,,,,,pending,standard,OpenStreetMap,2026-04-19,2026-04-19 06:58:54
way/663941994,Co-op Food,Food & Produce,food_produce,food-and-produce,"100 Hollway Road, Bristol, BS14 8PG",bristol,stockwood,co-op-food,51.4122794,-2.5470337,,https://www.coop.co.uk/store-finder/BS14-8PG/100-holloway-road,,Mo-Su 07:00-22:00,,,,,,,,"{""convenience""}",chain,,,,,,,,,,,pending,low,OpenStreetMap,2026-04-19,2026-04-19 06:58:54
way/663941999,John's Off Licence,Food & Produce,food_produce,food-and-produce,"68 Hollway Road, Bristol, BS14 8PG",bristol,stockwood,johns-off-licence,51.4119508,-2.5459323,,,,,,,,,,,,"{""convenience""}",independent,,,,,,,,,,,pending,standard,OpenStreetMap,2026-04-19,2026-04-19 06:58:54
way/1341755943,L J News,Food & Produce,food_produce,food-and-produce,"29 Cottle Road, Bristol, BS14 8QR",bristol,,l-j-news,51.4146104,-2.5396671,,,,,,,,,,,,"{""convenience""}",independent,,,,,,,,,,,pending,standard,OpenStreetMap,2026-04-19,2026-04-19 06:58:54
way/376314038,P&H Superstore,Food & Produce,food_produce,food-and-produce,"2 Hengrove Lane, Bristol, BS14 9DL",bristol,hengrove,p-h-superstore,51.4259233,-2.5642186,,,,,,,,,,,,"{""convenience""}",independent,,,,,,,,,,,pending,standard,OpenStreetMap,2026-04-19,2026-04-19 06:58:54
way/376298112,BS4 convenience store,Food & Produce,food_produce,food-and-produce,"308 Wells Road, Bristol, BS4 2QG",bristol,,bs4-convenience-store,51.4346652,-2.566559,,,,,,,,,,,,"{""convenience""}",independent,,,,,,,,,,,pending,standard,OpenStreetMap,2026-04-19,2026-04-19 06:58:54
way/376298120,Paprika Store,Food & Produce,food_produce,food-and-produce,"302b Wells Road, Bristol, BS4 2QG",bristol,,paprika-store,51.4349124,-2.5667171,+44 117 329 1516,http://paprikastore.co.uk,,Mo-Sa 10:00-19:00; Su 10:00-16:00,,,,,,,,"{""supermarket""}",independent,,,,,,,,,,,pending,standard,OpenStreetMap,2026-04-19,2026-04-19 06:58:54
way/376311060,Wells Road Convenience Store,Food & Produce,food_produce,food-and-produce,"323 Wells Road, Bristol, BS4 2QE",bristol,,wells-road-convenience-store,51.4347905,-2.5674056,,,,Mo-Fr 08:30-17:30; Sa 08:30-13:00,,,,,,,,"{""convenience""}",independent,,,,,,,,,,,pending,standard,OpenStreetMap,2026-04-19,2026-04-19 06:58:54
way/376311061,Parsons Bakery,Food & Produce,food_produce,food-and-produce,"317 Wells Road, Bristol, BS4 2QB",bristol,knowle,parsons-bakery,51.4349682,-2.56738,,,,Mo-Fr 07:30-16:00; Sa 08:00-16:00; Su 10:00-15:00,,,,,,,,"{""bakery""}",independent,,,,,,,,,,,pending,standard,OpenStreetMap,2026-04-19,2026-04-19 06:58:54
way/405883278,best-one,Food & Produce,food_produce,food-and-produce,"639 Bath Road, Bristol, BS4 3LF",bristol,,best-one,51.4358911,-2.5533285,,,,,,,,,,,,"{""convenience""}",independent,,,,,,,,,,,pending,standard,OpenStreetMap,2026-04-19,2026-04-19 06:58:54
way/211450581,Tesco Extra,Food & Produce,food_produce,food-and-produce,"Callington Road, Bristol, BS4 5AY",bristol,brislington,tesco-extra,51.4324098,-2.5546238,+44 345 677 9079,https://www.tesco.com/store-locator/bristol/callington-rd,,Mo-Sa 06:00-00:00; Su 10:00-16:00,,,,,,,,"{""supermarket""}",chain,,,,,,,,,,,pending,low,OpenStreetMap,2026-04-19,2026-04-19 06:58:54
way/279649401,Gbolahan Foods,Food & Produce,food_produce,food-and-produce,"9 Brislington Hill, Bristol, BS4 5BE",bristol,,gbolahan-foods,51.4338027,-2.5472864,+44 7951 673079,,,Mo-Sa 10:00-19:00,,,,,,,,"{""butcher""}",independent,,,,,,,,,,,pending,standard,OpenStreetMap,2026-04-19,2026-04-19 06:58:54
way/279665468,Profi food store,Food & Produce,food_produce,food-and-produce,"6 West Town Lane, Bristol, BS4 5BN",bristol,,profi-food-store,51.4318514,-2.5464461,,,,,,,,,,,,"{""convenience""}",independent,,,,,,,,,,,pending,standard,OpenStreetMap,2026-04-19,2026-04-19 06:58:54
way/405901696,Lidl,Food & Produce,food_produce,food-and-produce,"800-802 Bath Road, Bristol, BS4 5LQ",bristol,brislington,lidl,51.430961,-2.5456676,+44 20 3966 5566,https://www.lidl.co.uk/s/en-GB/store-finder/bristol/brislington/brislington-retail-park-bath-road/,,Mo-Sa 08:00-21:00; Su 10:00-16:00,,,,,,,,"{""supermarket""}",chain,,,,,,,,,,,pending,low,OpenStreetMap,2026-04-19,2026-04-19 06:58:54
way/736661916,Londis,Food & Produce,food_produce,food-and-produce,,,,londis,51.4342271,-2.5482094,,,,,,,,,,,,"{""convenience""}",independent,,,,,,,,,,,pending,standard,OpenStreetMap,2026-04-19,2026-04-19 06:58:54
way/23757586,Sainsbury's,Food & Produce,food_produce,food-and-produce,"Bloomfield Road Link, Bristol, BS4 3BD",bristol,brislington,sainsburys,51.4429976,-2.5598867,,https://stores.sainsburys.co.uk/0795/castle-court,,Mo-Sa 07:00-22:00; Su 11:00-17:00,,,,,,,,"{""supermarket""}",chain,,,,,,,,,,,pending,low,OpenStreetMap,2026-04-19,2026-04-19 06:58:54
way/499147245,Bath Road Convenience Store,Food & Produce,food_produce,food-and-produce,"361 Bath Road, Bristol, BS4 3EW",bristol,brislington,bath-road-convenience-store,51.4424785,-2.5641875,,,,,,,,,,,,"{""convenience""}",independent,,,,,,,,,,,pending,standard,OpenStreetMap,2026-04-19,2026-04-19 06:58:54
way/88024007,M&S Foodhall,Food & Produce,food_produce,food-and-produce,"St Philips Causeway, Bristol, BS2 0SP",bristol,st-philips,m-s-foodhall,51.4462824,-2.5596765,,https://www.marksandspencer.com/stores/bristol-avonmeads-foodhall-4051,,Mo-Sa 08:00-20:00; Su 10:00-16:00,,,,,,,,"{""supermarket""}",independent,,,,,,,,,,,pending,standard,OpenStreetMap,2026-04-19,2026-04-19 06:58:54
way/125803501,The Food Warehouse,Food & Produce,food_produce,food-and-produce,"Avon Meads Shopping Park Saint Philips Causeway, Bristol, BS2 0SP",bristol,st-philips-marsh,the-food-warehouse,51.4475531,-2.5595019,,https://www.thefoodwarehouse.com/store-locator/redcliffe,,,,,,,,,,"{""supermarket""}",independent,,,,,,,,,,,pending,standard,OpenStreetMap,2026-04-19,2026-04-19 06:58:54
way/499178697,Shell,Food & Produce,food_produce,food-and-produce,"Castleside Service Station Saint Philips Causeway, Bristol, BS4 3EX",bristol,saint-philips,shell,51.4429586,-2.561752,,,,,,,,,,,,"{""convenience""}",independent,,,,,,,,,,,pending,standard,OpenStreetMap,2026-04-19,2026-04-19 06:58:54
way/644590729,Lidl,Food & Produce,food_produce,food-and-produce,"Avon Meads Shopping Park St Philips Causeway, Bristol, BS2 0SP",bristol,st-philips-marsh,lidl,51.4479795,-2.5598843,,https://www.lidl.co.uk/s/en-GB/store-finder/bristol/st-philips-causeway/,,,,,,,,,,"{""supermarket""}",chain,,,,,,,,,,,pending,low,OpenStreetMap,2026-04-19,2026-04-19 06:58:54
way/405395678,International Mini Market,Food & Produce,food_produce,food-and-produce,"79 Sandy Park Road, Bristol, BS4 3PQ",bristol,,international-mini-market,51.4401542,-2.5538399,,,,Mo-Su 08:00-22:00,,,,,,,,"{""convenience""}",independent,,,,,,,,,,,pending,standard,OpenStreetMap,2026-04-19,2026-04-19 06:58:54
way/405875138,Deli@Sandy Park,Food & Produce,food_produce,food-and-produce,"10 Sandy Park Road, Bristol, BS4 3PE",bristol,brislington,delisandy-park,51.440879,-2.5551456,+44117 971 3199,https://www.deliatsandypark.co.uk/,deli.at.sandypark@outlook.com,,,,,,,,,"{""deli""}",independent,,,,,,,,,,,pending,standard,OpenStreetMap,2026-04-19,2026-04-19 06:58:54
way/405875141,Sandy Park Greengrocers,Food & Produce,food_produce,food-and-produce,"45 Sandy Park Road, Bristol, BS4 3PH",bristol,,sandy-park-greengrocers,51.440569,-2.5552293,+44 7714 736 626,https://sandyparkgreengrocers.co.uk/,,Mo-Sa 08:30-16:30; Su 10:00-15:00,,,,,,,,"{""greengrocer""}",independent,,,,,,,,,,,pending,standard,OpenStreetMap,2026-04-19,2026-04-19 06:58:54
way/405875146,Costcutter,Food & Produce,food_produce,food-and-produce,"26 Sandy Park Road, Bristol, BS4 3PE",bristol,brislington,costcutter,51.4407098,-2.554592,,https://store-locator.costcutter.co.uk/costcutter-8f7e41e8ff95,,,,,,,,,,"{""convenience""}",independent,,,,,,,,,,,pending,standard,OpenStreetMap,2026-04-19,2026-04-19 06:58:54
way/405875161,Morrisons Daily,Food & Produce,food_produce,food-and-produce,"37-39 Sandy Park Road, Bristol, BS4 3PH",bristol,brislington,morrisons-daily,51.4406398,-2.5554822,,https://my.morrisons.com/storefinder/61125/morrisons-daily-brislington-37-sandy-park,,,,,,,,,,"{""convenience""}",chain,,,,,,,,,,,pending,low,OpenStreetMap,2026-04-19,2026-04-19 06:58:54
way/405875162,Parsons Bakery,Food & Produce,food_produce,food-and-produce,"35 Sandy Park Road, Bristol, BS4 3PH",bristol,brislington,parsons-bakery,51.4406721,-2.5555756,,,,,,,,,,,,"{""bakery""}",independent,,,,,,,,,,,pending,standard,OpenStreetMap,2026-04-19,2026-04-19 06:58:54
way/405395743,Lifestyle Express,Food & Produce,food_produce,food-and-produce,"296 Wick Road, Bristol",bristol,,lifestyle-express,51.4456301,-2.5486878,,,,,,,,,,,,"{""convenience""}",independent,,,,,,,,,,,pending,standard,OpenStreetMap,2026-04-19,2026-04-19 06:58:54
way/405940916,The Co-operative Food,Food & Produce,food_produce,food-and-produce,"68 Broomhill Road, Bristol, BS4 4SD",bristol,brislington,the-co-operative-food,51.4405504,-2.5379926,,https://www.coop.co.uk/store-finder/BS4-4NZ/68-broomhill-road,,Mo-Su 07:00-22:00,,,,,,,,"{""supermarket""}",chain,,,,,,,,,,,pending,low,OpenStreetMap,2026-04-19,2026-04-19 06:58:54
way/405940903,Birchwood Stores,Food & Produce,food_produce,food-and-produce,"Birchwood Road, Bristol, BS4 4QH",bristol,,birchwood-stores,51.4485865,-2.5417996,,https://www.premier-stores.co.uk/our-stores/birchwood-convenience-store,,,,,,,,,,"{""convenience""}",independent,,,,,,,,,,,pending,standard,OpenStreetMap,2026-04-19,2026-04-19 06:58:54
way/405940915,The Gilmore,Food & Produce,food_produce,food-and-produce,"2 Birchwood Road, Bristol, BS4 4QH",bristol,saint-annes,the-gilmore,51.4486267,-2.5423947,,,,,,,,,,,,"{""convenience""}",independent,,,,,,,,,,,pending,standard,OpenStreetMap,2026-04-19,2026-04-19 06:58:54
way/186153565,Spar,Food & Produce,food_produce,food-and-produce,"181b Hotwell Road, Bristol, BS8 4SA",bristol,hotwells,spar,51.4497013,-2.6157984,,https://www.spar.co.uk/store-locator/awl17040-spar-hotwells-road,,,,,,,,,,"{""convenience""}",independent,,,,,,,,,,,pending,standard,OpenStreetMap,2026-04-19,2026-04-19 06:58:54
way/270499899,Clifton Village Butchers,Food & Produce,food_produce,food-and-produce,"12 The Mall, Bristol, BS8 4DR",bristol,clifton,clifton-village-butchers,51.454842,-2.6205502,,,,,,,,,,,,"{""butcher""}",independent,,,,,,,Q26504903,,,,pending,standard,OpenStreetMap,2026-04-19,2026-04-19 06:58:54
way/270499922,The Mall Deli,Food & Produce,food_produce,food-and-produce,"14 The Mall, Bristol, BS8 4DR",bristol,clifton,the-mall-deli,51.4548974,-2.6205905,,,,Tu-Sa 09:30-17:00; Mo 09:30-16:00; Su 11:00-16:00,,,,,,,,"{""cafe"",""deli""}",independent,,,,,,,,,,,pending,standard,OpenStreetMap,2026-04-19,2026-04-19 06:58:54
way/270761083,GAIL's,Food & Produce,food_produce,food-and-produce,"14 Regent Street, Bristol, BS8 4HG",bristol,clifton-village,gails,51.4540175,-2.6179086,,https://gails.com/pages/clifton-village,,,,,,,,,,"{""cafe"",""bakery""}",independent,,,,,,,,,,,pending,standard,OpenStreetMap,2026-04-19,2026-04-19 06:58:54
way/270761086,Chandos Deli,Food & Produce,food_produce,food-and-produce,"6 Princess Victoria Street, Bristol, BS8 4BP",bristol,clifton,chandos-deli,51.454915,-2.6193734,,,,,,,,,,,,"{""deli""}",independent,,,,,,,,,,,pending,standard,OpenStreetMap,2026-04-19,2026-04-19 06:58:54
way/270761100,Chandos,Food & Produce,food_produce,food-and-produce,,,,chandos,51.4548224,-2.6197197,,,,,,,,,,,,"{""deli""}",independent,,,,,,,,,,,pending,standard,OpenStreetMap,2026-04-19,2026-04-19 06:58:54
way/270761110,Smaller Footprints,Food & Produce,food_produce,food-and-produce,"9 Regent Street, Bristol, BS8 4HW",bristol,clifton,smaller-footprints,51.4536662,-2.6179187,,https://www.smallerfootprints.co.uk,,"Tu,We,Fr,Sa 10:00-17:00; Th 10:00-18:00",,,,,,,,"{""deli""}",independent,,,,,,,,,,,pending,standard,OpenStreetMap,2026-04-19,2026-04-19 06:58:54
way/270761127,Regent Street Convenience Store,Food & Produce,food_produce,food-and-produce,"22 Regent Street, Bristol, BS8 4HG",bristol,clifton,regent-street-convenience-store,51.4542433,-2.6181906,,,,,,,,,,,,"{""convenience""}",independent,,,,,,,Q26498094,,,,pending,standard,OpenStreetMap,2026-04-19,2026-04-19 06:58:54
way/270761133,Tesco Express,Food & Produce,food_produce,food-and-produce,"32-34 Regent Street, Bristol, BS8 4HU",bristol,clifton,tesco-express,51.4548535,-2.6186965,,https://www.tesco.com/store-locator/bristol/32-and-34-regent-st,,,,,,,,,,"{""convenience""}",chain,,,,,,,,,,,pending,low,OpenStreetMap,2026-04-19,2026-04-19 06:58:54
way/277793666,Catley's,Food & Produce,food_produce,food-and-produce,"14 Kings Road, Bristol, BS8 4AB",bristol,clifton,catleys,51.4554676,-2.6185862,,,,,,,,,,,,"{""bakery""}",independent,,,,,,,,,,,pending,standard,OpenStreetMap,2026-04-19,2026-04-19 06:58:54
way/277793675,Anna,Food & Produce,food_produce,food-and-produce,"7a Boyces Avenue, Bristol, BS8 4AA",bristol,clifton,anna,51.4551398,-2.6186308,,,,,,,,,,,,"{""confectionery""}",independent,,,,,,,,,,,pending,standard,OpenStreetMap,2026-04-19,2026-04-19 06:58:54
way/277793685,Reg the Veg,Food & Produce,food_produce,food-and-produce,"6 Boyces Avenue, Bristol, BS8 4AA",bristol,clifton,reg-the-veg,51.4552087,-2.6181769,+44 117 9706777,https://www.regtheveg.co.uk/,info@regtheveg.co.uk,Mo-Sa 08:00-18:00; Su 09:00-17:00,,,,,,,,"{""greengrocer""}",independent,,,,,,,,,,,pending,standard,OpenStreetMap,2026-04-19,2026-04-19 06:58:54
way/277793691,Clifton Fruit & Veg,Food & Produce,food_produce,food-and-produce,"9 Boyces Avenue, Bristol, BS8 4AA",bristol,clifton,clifton-fruit-veg,51.4550972,-2.6187938,,,,,,,,,,,,"{""greengrocer""}",independent,,,,,,,,,,,pending,standard,OpenStreetMap,2026-04-19,2026-04-19 06:58:54
way/277928414,The Co-operative Food,Food & Produce,food_produce,food-and-produce,"23-27 Princess Victoria Street, Bristol, BS8 4BX",bristol,clifton,the-co-operative-food,51.4544661,-2.6202889,+44 117 973 0963,https://www.coop.co.uk/store-finder/BS8-4BX/princess-victoria-street,,Mo-Su 07:00-23:00,,,,,,,,"{""supermarket""}",chain,,,,,,,,,,,pending,low,OpenStreetMap,2026-04-19,2026-04-19 06:58:54
way/277928440,Parsons,Food & Produce,food_produce,food-and-produce,"3 Princess Victoria Street, Bristol, BS8 4BX",bristol,clifton,parsons,51.454761,-2.619237,+44 117 923 9396,,,,,,,,,,,"{""bakery""}",independent,,,,,,,Q26498060,,,,pending,standard,OpenStreetMap,2026-04-19,2026-04-19 06:58:54
way/483554821,Shop'N Drive,Food & Produce,food_produce,food-and-produce,Bristol,bristol,,shopn-drive,51.4497745,-2.6144763,,,,,,,,,,,,"{""convenience""}",independent,,,,,,,,,,,pending,standard,OpenStreetMap,2026-04-19,2026-04-19 06:58:54
way/97655908,Little Waitrose,Food & Produce,food_produce,food-and-produce,"85 Queen's Road, Bristol, BS8 1QS, GB",bristol,clifton,little-waitrose,51.4569847,-2.6084829,+44 800 188 884,https://www.waitrose.com/find-a-store/clifton,,Mo-Sa 07:00-22:00; Su 12:00-18:00,,,,,,,,"{""convenience""}",chain,,,,,,,,,,,pending,low,OpenStreetMap,2026-04-19,2026-04-19 06:58:54
way/277793693,The Ten O'Clock Shop,Food & Produce,food_produce,food-and-produce,,,,the-ten-oclock-shop,51.4556248,-2.6144908,,,,Mo-Sa 06:30-22:00; Su 07:30-22:00,,,,,,,,"{""convenience""}",independent,,,,,,,Q26571125,,,,pending,standard,OpenStreetMap,2026-04-19,2026-04-19 06:58:54
way/575147506,M&S Simply Food,Food & Produce,food_produce,food-and-produce,"40A Whiteladies Road, Bristol, BS8 2AZ",bristol,clifton,m-s-simply-food,51.4622274,-2.6090598,,https://www.marksandspencer.com/stores/bristol-whiteladies-road-simply-foo-2123,,Mo-Sa 07:00-22:00; Su 08:00-22:00,,,,,,,,"{""supermarket""}",independent,,,,,,,,,,,pending,standard,OpenStreetMap,2026-04-19,2026-04-19 06:58:54
way/277793664,Clifton Convenience Store,Food & Produce,food_produce,food-and-produce,"108-110 Queen's Road, Bristol, BS8 1NF",bristol,,clifton-convenience-store,51.4581276,-2.6117799,,,,,,,,,,,,"{""convenience""}",independent,,,,,,,,,,,pending,standard,OpenStreetMap,2026-04-19,2026-04-19 06:58:54
way/298668747,Root&Ember,Food & Produce,food_produce,food-and-produce,"3 Bruton Place, Bristol, BS8 1JN",bristol,,root-ember,51.4566696,-2.6100275,,,,,,,,,,,,"{""deli""}",independent,,,,,,,,,,,pending,standard,OpenStreetMap,2026-04-19,2026-04-19 06:58:54
way/190054103,168 Oriental,Food & Produce,food_produce,food-and-produce,"52 Park Street, Bristol, BS1 5JN, GB",bristol,city-centre,168-oriental,51.4545509,-2.6025596,,,,,,,,,,,,"{""supermarket""}",independent,,,,,,,,,,,pending,standard,OpenStreetMap,2026-04-19,2026-04-19 06:58:54
way/280997078,Clements Convenience,Food & Produce,food_produce,food-and-produce,"87 Saint Georges Road, Bristol, BS1 5UR",bristol,city-centre,clements-convenience,51.4512103,-2.6054264,,,,,,,,,,,,"{""convenience""}",independent,,,,,,,,,,,pending,standard,OpenStreetMap,2026-04-19,2026-04-19 06:58:54
way/483814491,Shop'N Drive,Food & Produce,food_produce,food-and-produce,,,,shopn-drive,51.4551419,-2.6021249,,,,,,,,,,,,"{""convenience""}",independent,,,,,,,,,,,pending,standard,OpenStreetMap,2026-04-19,2026-04-19 06:58:54
way/123969964,Tesco Express,Food & Produce,food_produce,food-and-produce,"4-8 Clare Street, Bristol, BS1 1XR",bristol,,tesco-express,51.4535738,-2.5964676,,https://www.tesco.com/store-locator/bristol/4-6-clare-st,,Mo-Su 07:00-23:00,,,,,,,,"{""convenience""}",chain,,,,,,,,,,,pending,low,OpenStreetMap,2026-04-19,2026-04-19 06:58:54
way/123982866,Merchants News,Food & Produce,food_produce,food-and-produce,"62 Prince Street, Bristol, BS1 4QD",bristol,city-centre,merchants-news,51.4498476,-2.5969864,,,,,,,,,,,,"{""convenience""}",independent,,,,,,,,,,,pending,standard,OpenStreetMap,2026-04-19,2026-04-19 06:58:54
way/160205288,GAIL's,Food & Produce,food_produce,food-and-produce,"26-29 College Green, Bristol, BS1 5TB",bristol,,gails,51.452974,-2.600474,,,,,,,,,,,,"{""bakery""}",independent,,,,,,,,,,,pending,standard,OpenStreetMap,2026-04-19,2026-04-19 06:58:54
way/289453747,Wah Yan Hong Oriental Food Specialist,Food & Produce,food_produce,food-and-produce,"13 Denmark Street, Bristol, BS1 5DY",bristol,city-centre,wah-yan-hong-oriental-food-specialist,51.4533282,-2.5998683,,,,,,,,,,,,"{""supermarket""}",independent,,,,,,,,,,,pending,standard,OpenStreetMap,2026-04-19,2026-04-19 06:58:54
way/291696834,Tesco Express,Food & Produce,food_produce,food-and-produce,"32-34 College Green, Bristol, BS1 5SP",bristol,city-centre,tesco-express,51.4526709,-2.5997457,,https://www.tesco.com/store-locator/bristol/college-house,,Mo-Su 07:00-23:00,,,,,,,,"{""convenience""}",chain,,,,,,,,,,,pending,low,OpenStreetMap,2026-04-19,2026-04-19 06:58:54
way/291700163,Sainsbury's Local,Food & Produce,food_produce,food-and-produce,"7-11 Broad Quay, Bristol, BS1 4DA",bristol,city-centre,sainsburys-local,51.4526941,-2.5966077,,https://stores.sainsburys.co.uk/4946/bristol-hippodrome-local,,,,,,,,,,"{""convenience""}",chain,,,,,,,,,,,pending,low,OpenStreetMap,2026-04-19,2026-04-19 06:58:54
way/292125347,Sotiris,Food & Produce,food_produce,food-and-produce,"16 Park Row, Bristol, BS1 5LJ",bristol,city-centre,sotiris,51.4552942,-2.6006735,,,,Mo-Su 09:00-18:00,,,,,,,,"{""bakery"",""greek""}",independent,,https://www.instagram.com/sotirisbakery,,,,,,,,,pending,standard,OpenStreetMap,2026-04-19,2026-04-19 06:58:54
way/329054483,Nihow,Food & Produce,food_produce,food-and-produce,"6 Baldwin Street, Bristol, BS1 1SA",bristol,city-centre,nihow,51.4533066,-2.5966613,,,,,,,,,,,,"{""convenience"",""chinese"",""japanese"",""korean""}",independent,,,,,,,,,,,pending,standard,OpenStreetMap,2026-04-19,2026-04-19 06:58:54
way/484626176,Lifestyle Express,Food & Produce,food_produce,food-and-produce,"21 St Augustine's Parade, Bristol, BS1 4UL",bristol,city-centre,lifestyle-express,51.4535703,-2.5981907,,,,,,,,,,,,"{""convenience""}",independent,,,,,,,,,,,pending,standard,OpenStreetMap,2026-04-19,2026-04-19 06:58:54
way/98494839,Co-op Food,Food & Produce,food_produce,food-and-produce,"Clarence Place, Bristol, BS2 8DD",bristol,kingsdown,co-op-food,51.4613747,-2.6019685,+44 117 929 8169,https://www.coop.co.uk/store-finder/BS2-8DD/clarence-place,,Mo-Sa 07:00-23:00; Su 12:00-18:00,,,,,,,,"{""supermarket""}",chain,,,,,,,,,,,pending,low,OpenStreetMap,2026-04-19,2026-04-19 06:58:54
way/269097612,Nisa express,Food & Produce,food_produce,food-and-produce,"15-19 Queen's Road, Bristol, BS8 1QE",bristol,clifton,nisa-express,51.4557154,-2.6051619,,https://www.nisalocally.co.uk/stores/city-of-bristol/bristol/15-19-queens-rd,,,,,,,,,,"{""convenience""}",independent,,,,,,,,,,,pending,standard,OpenStreetMap,2026-04-19,2026-04-19 06:58:54
way/227778369,Sainsbury's,Food & Produce,food_produce,food-and-produce,"48-56 Queen's Road, Bristol, BS8 1RE",bristol,clifton,sainsburys,51.456885,-2.6067265,,https://stores.sainsburys.co.uk/2056/dingles,,,,,,,,,,"{""supermarket""}",chain,,,,,,,,,,,pending,low,OpenStreetMap,2026-04-19,2026-04-19 06:58:54
way/249628878,Langyu,Food & Produce,food_produce,food-and-produce,"75 Queen's Road, Bristol, BS8 1QP, GB",bristol,,langyu,51.456716,-2.607488,,,,,,,,,,,,"{""deli""}",independent,,,,,,,,,,,pending,standard,OpenStreetMap,2026-04-19,2026-04-19 06:58:54
way/249628883,168 Mart,Food & Produce,food_produce,food-and-produce,"47 Queen's Road, Bristol, BS8 1QQ, GB",bristol,,168-mart,51.4562251,-2.606451,,,,,,,,,,,,"{""deli""}",independent,,,,,,,,,,,pending,standard,OpenStreetMap,2026-04-19,2026-04-19 06:58:54
way/249628887,St news,Food & Produce,food_produce,food-and-produce,"57 Queen's Road, Bristol, BS8 1QL, GB",bristol,clifton,st-news,51.4564031,-2.6068202,,,,,,,,,,,,"{""convenience""}",independent,,,,,,,,,,,pending,standard,OpenStreetMap,2026-04-19,2026-04-19 06:58:54
way/269095195,Metro Convenience Store,Food & Produce,food_produce,food-and-produce,"150 Saint Michaels Hill, Bristol, BS2 8DA, GB",bristol,,metro-convenience-store,51.46106,-2.6019125,,,,,,,,,,,,"{""convenience""}",independent,,,,,,,,,,,pending,standard,OpenStreetMap,2026-04-19,2026-04-19 06:58:54
way/105464503,Chaya Canteen,Food & Produce,food_produce,food-and-produce,"120 Saint Michaels Hill, Bristol, BS2 8BU",bristol,kingsdown,chaya-canteen,51.4602251,-2.6010444,,,,,,,,,,,,"{""deli""}",independent,,,,,,,,,,,pending,standard,OpenStreetMap,2026-04-19,2026-04-19 06:58:54
way/175403469,Colston Mini Market,Food & Produce,food_produce,food-and-produce,"78 Colston Street, Bristol, BS1 5BB",bristol,city-centre,colston-mini-market,51.4567537,-2.5971982,,,,,,,,,,,,"{""convenience""}",independent,,,,,,,,,,,pending,standard,OpenStreetMap,2026-04-19,2026-04-19 06:58:54
way/295034129,Ahh Toots,Food & Produce,food_produce,food-and-produce,"17 Christmas Street, Bristol, BS1 5BT",bristol,city-centre,ahh-toots,51.4561195,-2.5964297,,https://ahhtoots.com/,,We-Fr 08:00-17:00; Sa 10:00-17:00,,,,,,,,"{""bakery""}",independent,,,,,,,,,,,pending,standard,OpenStreetMap,2026-04-19,2026-04-19 06:58:54
way/353479557,Parsons,Food & Produce,food_produce,food-and-produce,"134 Saint Michaels Hill, Bristol, BS2 8DA, GB",bristol,kingsdown,parsons,51.4607191,-2.6015008,+44 1179 330919,,,Mo-Fr 07:00-17:15; Sa-Su 08:00-16:00,,,,,,,,"{""bakery""}",independent,,,,,,,,,,,pending,standard,OpenStreetMap,2026-04-19,2026-04-19 06:58:54
way/625255524,Kitchen Ahh Toots,Food & Produce,food_produce,food-and-produce,"19 Christmas Steps, Bristol, BS1 5BT",bristol,,kitchen-ahh-toots,51.4561798,-2.5963502,,,,,,,,,,,,"{""bakery""}",independent,,,,,,,,,,,pending,standard,OpenStreetMap,2026-04-19,2026-04-19 06:58:54
way/157177450,Clifton Mini Market,Food & Produce,food_produce,food-and-produce,"60 Alma Vale Road, Bristol, BS8 2HS",bristol,clifton,clifton-mini-market,51.4632352,-2.6130922,,,,,,,,,,,,"{""convenience""}",independent,,,,,,,,,,,pending,standard,OpenStreetMap,2026-04-19,2026-04-19 06:58:54
way/170245965,scoop wholefoods,Food & Produce,food_produce,food-and-produce,"98a Whiteladies Road, Bristol, BS8 2QY",bristol,clifton,scoop-wholefoods,51.4672614,-2.612622,,,,,,,,,,,,"{""deli""}",independent,,,,,,,,,,,pending,standard,OpenStreetMap,2026-04-19,2026-04-19 06:58:54
way/225634967,Cook,Food & Produce,food_produce,food-and-produce,"3 Whiteladies Road, Bristol, BS8 2QY",bristol,clifton,cook,51.4679049,-2.6132759,+44 117 317 9748,https://www.cookfood.net/shops/clifton,,,,,,,,,,"{""deli""}",independent,,,,,,,,,,,pending,standard,OpenStreetMap,2026-04-19,2026-04-19 06:58:54
way/228581822,The Better Food Company,Food & Produce,food_produce,food-and-produce,"94a Whiteladies Road, Bristol, BS8 2QX",bristol,clifton,the-better-food-company,51.466756,-2.6121323,+44 117 946 6957,https://www.betterfood.co.uk/,,,,,,,,,,"{""supermarket""}",independent,,,,,,,,,,,pending,standard,OpenStreetMap,2026-04-19,2026-04-19 06:58:54
way/260994927,Mr T.G. Pullin's Bakery,Food & Produce,food_produce,food-and-produce,"8 Cotham Hill, Bristol, BS6 6LF",bristol,cotham,mr-tg-pullins-bakery,51.4645298,-2.6089561,,,,,,,,,,,,"{""bakery""}",independent,,,,,,,,,,,pending,standard,OpenStreetMap,2026-04-19,2026-04-19 06:58:54
way/260994942,Cotham Hill Fruit & Veg,Food & Produce,food_produce,food-and-produce,"24 Cotham Hill, Bristol, BS6 6LF, GB",bristol,,cotham-hill-fruit-veg,51.4643631,-2.6084066,+44 1179747241,,,,,,,,,,,"{""greengrocer""}",independent,,,,,,,,,,,pending,standard,OpenStreetMap,2026-04-19,2026-04-19 06:58:54
way/261464036,10+One Store,Food & Produce,food_produce,food-and-produce,"107 Whiteladies Road, Bristol, BS8 2PB",bristol,clifton,10one-store,51.4640704,-2.6091732,,,,,,,,,,,,"{""convenience""}",independent,,,,,,,,,,,pending,standard,OpenStreetMap,2026-04-19,2026-04-19 06:58:54
way/270971681,Pan Asia Goodies,Food & Produce,food_produce,food-and-produce,"5b Whiteladies Road, Bristol, BS8 2NN",bristol,clifton,pan-asia-goodies,51.4645764,-2.6102464,,,,,,,,,,,,"{""convenience""}",independent,,,,,,,,,,,pending,standard,OpenStreetMap,2026-04-19,2026-04-19 06:58:54
way/275376187,Gail's,Food & Produce,food_produce,food-and-produce,"52 Whiteladies Road, Bristol, BS8 2NH",bristol,,gails,51.4633945,-2.6095212,,,,,,,,,,,,"{""bakery""}",independent,,,,,,,,,,,pending,standard,OpenStreetMap,2026-04-19,2026-04-19 06:58:54
way/275376189,Ruby & White,Food & Produce,food_produce,food-and-produce,"48 Whiteladies Road, Bristol, BS8 2NH",bristol,clifton,ruby-white,51.4632568,-2.6094215,,http://www.rubyandwhite.com/,info@rubyandwhite.com,,,,,,,,,"{""butcher""}",independent,http://www.facebook.com/pages/Ruby-White/272615946089094,,rubyandwhite,,,,,,,,pending,standard,OpenStreetMap,2026-04-19,2026-04-19 06:58:54
way/285586213,Papadeli,Food & Produce,food_produce,food-and-produce,"84 Alma Road, Bristol, BS8 2DJ",bristol,clifton,papadeli,51.4632845,-2.609863,+44 117 9736569,http://news.papadeli.co.uk/,info@papadeli.co.uk,,,,,,,,,"{""cafe"",""deli""}",independent,,,,,,,,,,,pending,standard,OpenStreetMap,2026-04-19,2026-04-19 06:58:54
way/390721995,Sainsbury's,Food & Produce,food_produce,food-and-produce,"Clifton Down Shopping Centre Whiteladies Road, Bristol, BS8 2NN",bristol,clifton,sainsburys,51.4640806,-2.6109092,+44 117 973 2348,https://stores.sainsburys.co.uk/2202/clifton-down,,Mo-Su 07:00-22:30,,,,,,,,"{""supermarket""}",chain,,,,,,,,,,,pending,low,OpenStreetMap,2026-04-19,2026-04-19 06:58:54
way/391995150,Holland & Barrett,Food & Produce,food_produce,food-and-produce,"Clifton Down Shopping Centre Whiteladies Road, Bristol, BS8 2NN",bristol,clifton,holland-barrett,51.4642327,-2.6099185,,https://www.hollandandbarrett.com/stores/clifton-4523/,,Mo-Sa 09:00-17:30; Su 11:00-17:00,,,,,,,,"{""deli""}",chain,,,,,,,,,,,pending,low,OpenStreetMap,2026-04-19,2026-04-19 06:58:54
way/170245626,Tesco Express,Food & Produce,food_produce,food-and-produce,"169 Whiteladies Road, Bristol, BS8 2RL",bristol,clifton,tesco-express,51.4688299,-2.6134831,,https://www.tesco.com/store-locator/bristol/169a-whiteladies-rd,,Mo-Su 07:00-22:00,,,,,,,,"{""convenience""}",chain,,,,,,,,,,,pending,low,OpenStreetMap,2026-04-19,2026-04-19 06:58:54
way/180473655,Divino Deli,Food & Produce,food_produce,food-and-produce,"1 Worrall Road, Bristol, BS8 2UF",bristol,clifton,divino-deli,51.4692886,-2.6146972,,https://www.divinodeli.co.uk/,,Mo-Fr 08:00-20:00; Sa 08:00-16:00,,,,,,,,"{""deli""}",independent,,,,,,,,,,,pending,standard,OpenStreetMap,2026-04-19,2026-04-19 06:58:54
way/191296544,11Eleven,Food & Produce,food_produce,food-and-produce,"38 Coldharbour Road, Bristol, BS6 7NA",bristol,westbury-park,11eleven,51.4748193,-2.6104445,,,,,,,,,,,,"{""convenience""}",independent,,,,,,,,,,,pending,standard,OpenStreetMap,2026-04-19,2026-04-19 06:58:54
way/224572873,Asda,Food & Produce,food_produce,food-and-produce,"213 Whiteladies Road, Bristol, BS8 2XS",bristol,clifton,asda,51.4701716,-2.6145624,,https://storelocator.asda.com/south-west/bristol/whiteladies-road,,,,,,,,,,"{""convenience""}",chain,,,,,,,,,,,pending,low,OpenStreetMap,2026-04-19,2026-04-19 06:58:54
way/224572892,Sainsbury's Local,Food & Produce,food_produce,food-and-produce,"140a Whiteladies Road, Bristol, BS8 2RS",bristol,clifton,sainsburys-local,51.4690749,-2.6145704,+44 117 948 1210,https://stores.sainsburys.co.uk/4457/bristol-whiteladies-road-local,,Mo-Su 07:00-23:00,,,,,,,,"{""convenience""}",chain,,,,,,,,,,,pending,low,OpenStreetMap,2026-04-19,2026-04-19 06:58:54
way/232278925,Local Garden,Food & Produce,food_produce,food-and-produce,"136 Whiteladies Road, Bristol, BS8 2RS",bristol,,local-garden,51.4689966,-2.6142684,,,,,,,,,,,,"{""greengrocer""}",independent,,,,,,,,,,,pending,standard,OpenStreetMap,2026-04-19,2026-04-19 06:58:54
way/257126488,Bristol Loaf,Food & Produce,food_produce,food-and-produce,"185 Redland Road, Bristol, BS6 6XP, GB",bristol,redland,bristol-loaf,51.4734077,-2.6113841,,https://www.bristolloaf.co.uk/,,,,,,,,,,"{""cafe"",""bakery""}",independent,,,,,,,,,,,pending,standard,OpenStreetMap,2026-04-19,2026-04-19 06:58:54
way/263548009,Bristol l'eclair,Food & Produce,food_produce,food-and-produce,"195-197 Whiteladies Road, Bristol, BS8 2SB",bristol,,bristol-leclair,51.4695394,-2.6140774,,,,,,,,,,,,"{""bakery""}",independent,,,,,,,,,,,pending,standard,OpenStreetMap,2026-04-19,2026-04-19 06:58:54
way/272705883,Wild Oats,Food & Produce,food_produce,food-and-produce,"9-11 Lower Redland Road, Bristol, BS6 6TB",bristol,redland,wild-oats,51.4690692,-2.6133593,+44 117 973 1967,https://www.woats.co.uk/,,,,,,,,,,"{""supermarket""}",independent,,,,,,,,,,,pending,standard,OpenStreetMap,2026-04-19,2026-04-19 06:58:54
way/370499526,The Spiny Lobster,Food & Produce,food_produce,food-and-produce,,,,the-spiny-lobster,51.4688222,-2.6142475,,,,,,,,,,,,"{""seafood""}",independent,,,,,,,,,,,pending,standard,OpenStreetMap,2026-04-19,2026-04-19 06:58:54
way/105351290,Londis,Food & Produce,food_produce,food-and-produce,"30 Chandos Road, Bristol, BS6 6PF",bristol,redland,londis,51.4662303,-2.6073378,,,,,,,,,,,,"{""convenience""}",independent,,,,,,,,,,,pending,standard,OpenStreetMap,2026-04-19,2026-04-19 06:58:54
way/272704905,The Redland Bakery,Food & Produce,food_produce,food-and-produce,"18 Chandos Road, Bristol, BS6 6PF",bristol,redland,the-redland-bakery,51.4678162,-2.6054665,,,,,,,,,,,,"{""bakery""}",independent,,,,,,,,,,,pending,standard,OpenStreetMap,2026-04-19,2026-04-19 06:58:54
